[{"naam": "A & M Smith Recycling Services Ltd", "regio": "Aberdeenshire", "land": "United Kingdom", "klanttype": "Residential, Commercial", "materialen": "Plastic, Paper, Glass, Metal", "volume": "", "lat": 57.166667, "lon": -2.666667}, {"naam": "A Brunton Limited", "regio": "East Riding of Yorkshire", "land": "United Kingdom", "klanttype": "Residential, Commercial, Industrial", "materialen": "Plastic, Paper, Glass, Metal", "volume": "", "lat": 53.8735965, "lon": -0.5347788}, {"naam": "A Christie and Sons", "regio": "City of Glasgow", "land": "United Kingdom", "klanttype": "Residential, Commercial, Industrial", "materialen": "Plastic, Paper, Metal, Organic", "volume": "", "lat": 55.8555116, "lon": -4.2262307}, {"naam": "A J Recycling", "regio": "Pembrokeshire", "land": "United Kingdom", "klanttype": "Residential, Commercial, Industrial", "materialen": "Plastic, Paper, Glass, Metal", "volume": "", "lat": 51.8339209, "lon": -4.916667}, {"naam": "A. Riddel Waste Management", "regio": "Lincolnshire", "land": "United Kingdom", "klanttype": "Residential, Commercial, Industrial", "materialen": "Plastic, Paper, Glass, Metal, Organic", "volume": "", "lat": 53.1823034, "lon": -0.2031209}, {"naam": "A.E. Burgess & Sons Ltd", "regio": "Leicester", "land": "United Kingdom", "klanttype": "Residential, Commercial, Industrial", "materialen": "Plastic, Paper, Glass, Metal", "volume": "240,000", "lat": 52.6362, "lon": -1.1331969}, {"naam": "A.R. Richards Ltd.", "regio": "Shropshire", "land": "United Kingdom", "klanttype": "Residential, Commercial, Industrial", "materialen": "Plastic, Paper, Glass, Metal", "volume": "72,000", "lat": 52.6523394, "lon": -2.6435641}, {"naam": "A1 Mini Skips Ltd.", "regio": "Stoke-on-Trent", "land": "United Kingdom", "klanttype": "Residential, Commercial", "materialen": "Plastic, Paper, Glass, Metal", "volume": "", "lat": 53.0162014, "lon": -2.1812607}, {"naam": "A2B Skip Hire Ltd.", "regio": "Merseyside", "land": "United Kingdom", "klanttype": "Residential, Commercial", "materialen": "Plastic, Paper, Glass, Metal", "volume": "", "lat": 53.4953602, "lon": -2.973938}, {"naam": "AB Waste Disposal Ltd.", "regio": "Nottinghamshire", "land": "United Kingdom", "klanttype": "Residential, Commercial", "materialen": "Plastic, Paper, Metal, Organic", "volume": "", "lat": 53.1459288, "lon": -1.0214971}, {"naam": "Abacus Waste Management", "regio": "Bristol", "land": "United Kingdom", "klanttype": "Residential, Commercial", "materialen": "Paper, Metal, Organic", "volume": "", "lat": 51.4430162, "lon": -2.581661}, {"naam": "Abbey Skip Hire Ltd.", "regio": "Greater Manchester", "land": "United Kingdom", "klanttype": "Residential, Commercial, Industrial", "materialen": "Plastic, Paper, Metal", "volume": "", "lat": 53.5065249, "lon": -2.3374401}, {"naam": "Ace Liftaway", "regio": "Hampshire", "land": "United Kingdom", "klanttype": "Residential, Commercial", "materialen": "Plastic, Paper, Glass, Metal", "volume": "", "lat": 51.0449814, "lon": -1.2433102}, {"naam": "Acorn Recyclers", "regio": "Leicestershire", "land": "United Kingdom", "klanttype": "Residential, Commercial, Industrial", "materialen": "Plastic, Paper", "volume": "", "lat": 52.666667, "lon": -1.0}, {"naam": "Acorn Waste", "regio": "Norfolk", "land": "United Kingdom", "klanttype": "Commercial, Industrial", "materialen": "Plastic, Paper", "volume": "", "lat": 52.666667, "lon": 1.0}, {"naam": "ADS Skip Hire", "regio": "Medway", "land": "United Kingdom", "klanttype": "", "materialen": "Paper, Metal", "volume": "", "lat": 51.4157386, "lon": 0.5687309}, {"naam": "Agha Recycling Solutions Ltd", "regio": "Northamptonshire", "land": "United Kingdom", "klanttype": "", "materialen": "Plastic, Paper", "volume": "", "lat": 52.3106138, "lon": -0.865913}, {"naam": "Ahern Waste Management and Recycling Services", "regio": "Thurrock", "land": "United Kingdom", "klanttype": "Commercial, Industrial", "materialen": "Plastic, Paper, Metal, Organic", "volume": "", "lat": 51.5080169, "lon": 0.3962817}, {"naam": "Aireborough Skip Hire Limited", "regio": "West Yorkshire", "land": "United Kingdom", "klanttype": "Residential, Commercial", "materialen": "Plastic, Paper, Metal, Organic", "volume": "", "lat": 53.7414271, "lon": -1.7202004}, {"naam": "Alan's Skip Hire Ltd", "regio": "Flintshire", "land": "United Kingdom", "klanttype": "Residential, Commercial, Industrial", "materialen": "Plastic, Paper, Metal, Organic", "volume": "", "lat": 53.2165096, "lon": -3.1402189}, {"naam": "Alchem (Merseyside) Ltd.", "regio": "Cheshire West and Chester", "land": "United Kingdom", "klanttype": "", "materialen": "Plastic, Paper, Metal", "volume": "", "lat": 53.1637979, "lon": -2.7285361}, {"naam": "Allensway Ltd", "regio": "East Riding of Yorkshire", "land": "United Kingdom", "klanttype": "Residential, Commercial", "materialen": "Plastic, Paper", "volume": "", "lat": 53.8735965, "lon": -0.5347788}, {"naam": "Allied Waste Management Ltd.", "regio": "East Sussex", "land": "United Kingdom", "klanttype": "Residential, Commercial, Industrial", "materialen": "Plastic, Paper, Metal", "volume": "", "lat": 50.9404266, "lon": 0.3699978}, {"naam": "Allstone Speedy Skips", "regio": "Gloucestershire", "land": "United Kingdom", "klanttype": "Residential, Commercial, Industrial", "materialen": "Plastic, Paper, Metal", "volume": "", "lat": 51.7643786, "lon": -2.1880662}, {"naam": "Amenities Limited", "regio": "Northamptonshire", "land": "United Kingdom", "klanttype": "Commercial, Industrial", "materialen": "Plastic, Paper, Metal", "volume": "", "lat": 52.3106138, "lon": -0.865913}, {"naam": "Arrow Recycling Ltd", "regio": "West Midlands", "land": "United Kingdom", "klanttype": "Commercial, Industrial", "materialen": "Plastic, Paper", "volume": "", "lat": 52.505432, "lon": -1.9646782}, {"naam": "Arthur’s Skip Hire and Waste Management", "regio": "South Yorkshire", "land": "United Kingdom", "klanttype": "", "materialen": "Plastic, Paper, Glass, Metal", "volume": "", "lat": 53.4815334, "lon": -1.3810422}, {"naam": "ASH Waste Services", "regio": "Wrexham", "land": "United Kingdom", "klanttype": "Residential, Commercial", "materialen": "Plastic, Paper, Glass, Metal, Organic", "volume": "", "lat": 53.0465084, "lon": -2.9937869}, {"naam": "Atlantic Recycling Ltd", "regio": "Cardiff", "land": "United Kingdom", "klanttype": "Residential, Commercial, Industrial", "materialen": "Plastic, Paper, Glass, Metal", "volume": "", "lat": 51.4816546, "lon": -3.1791934}, {"naam": "Avena Environmental Ltd", "regio": "Norfolk", "land": "United Kingdom", "klanttype": "Commercial", "materialen": "Paper", "volume": "", "lat": 52.666667, "lon": 1.0}, {"naam": "Avon Materials Supplies Limited", "regio": "Dorset", "land": "United Kingdom", "klanttype": "Residential, Commercial, Industrial", "materialen": "Plastic, Paper, Glass, Metal, Organic", "volume": "", "lat": 50.7968369, "lon": -2.3447323}, {"naam": "AWS Recycling Ltd.", "regio": "West Midlands", "land": "United Kingdom", "klanttype": "Commercial, Industrial", "materialen": "Plastic, Paper, Glass, Metal", "volume": "", "lat": 52.505432, "lon": -1.9646782}, {"naam": "Axe Skip Hire Ltd.", "regio": "Devon", "land": "United Kingdom", "klanttype": "Residential, Commercial", "materialen": "Paper, Metal, Organic", "volume": "", "lat": 50.7241405, "lon": -3.6607788}, {"naam": "B & T at Work", "regio": "Greater London", "land": "United Kingdom", "klanttype": "Residential, Commercial, Industrial", "materialen": "Plastic, Paper, Glass, Metal, Organic", "volume": "", "lat": 51.5074456, "lon": -0.1277653}, {"naam": "B&K Environmental Services Ltd", "regio": "Greater London", "land": "United Kingdom", "klanttype": "", "materialen": "Plastic, Paper, Metal, Organic", "volume": "165,000", "lat": 51.5074456, "lon": -0.1277653}, {"naam": "B&M Waste Services", "regio": "Merseyside", "land": "United Kingdom", "klanttype": "", "materialen": "Paper, Glass, Organic", "volume": "", "lat": 53.4953602, "lon": -2.973938}, {"naam": "Bailey Waste", "regio": "Armagh", "land": "United Kingdom", "klanttype": "Commercial, Industrial", "materialen": "Plastic, Paper", "volume": "", "lat": 54.3161086, "lon": -6.7189182}, {"naam": "Bailey’s Skip Hire and Recycling Ltd.", "regio": "Northamptonshire", "land": "United Kingdom", "klanttype": "Residential, Commercial, Industrial", "materialen": "Plastic, Paper, Glass, Metal", "volume": "", "lat": 52.3106138, "lon": -0.865913}, {"naam": "Bakers Environmental Solutions Ltd", "regio": "Leicester", "land": "United Kingdom", "klanttype": "Residential, Commercial, Industrial", "materialen": "Plastic, Paper, Glass, Organic", "volume": "56,000", "lat": 52.6362, "lon": -1.1331969}, {"naam": "Baldwin Skip Hire Ltd.", "regio": "Norfolk", "land": "United Kingdom", "klanttype": "Residential, Commercial, Industrial", "materialen": "Plastic, Paper, Glass, Metal", "volume": "", "lat": 52.666667, "lon": 1.0}, {"naam": "Banbury Plant and Skip Hire", "regio": "Oxfordshire", "land": "United Kingdom", "klanttype": "", "materialen": "Plastic, Paper, Metal", "volume": "", "lat": 51.833333, "lon": -1.25}, {"naam": "Barnes Recycling Ltd", "regio": "Greater London", "land": "United Kingdom", "klanttype": "Residential, Commercial, Industrial", "materialen": "Plastic, Paper, Glass, Metal", "volume": "", "lat": 51.5074456, "lon": -0.1277653}, {"naam": "Barton Skip and Grab Hire Limited", "regio": "Central Bedfordshire", "land": "United Kingdom", "klanttype": "Residential, Commercial", "materialen": "Plastic, Paper, Metal, Organic", "volume": "", "lat": 51.9980328, "lon": -0.4791514}, {"naam": "Batemans Skips Ltd", "regio": "Bath and North East Somerset", "land": "United Kingdom", "klanttype": "Residential, Commercial", "materialen": "Paper, Metal", "volume": "", "lat": 51.3563238, "lon": -2.4866614}, {"naam": "BB Skip Hire & Waste Management", "regio": "Lancashire", "land": "United Kingdom", "klanttype": "Residential, Commercial, Industrial", "materialen": "Plastic, Paper, Metal, Organic", "volume": "", "lat": 53.8611712, "lon": -2.5650945}, {"naam": "Bedale Skip Hire", "regio": "North Yorkshire", "land": "United Kingdom", "klanttype": "Residential, Commercial, Industrial", "materialen": "Plastic, Paper, Metal, Organic", "volume": "", "lat": 54.1345328, "lon": -1.4986285}, {"naam": "Beefy’s Skips Ltd.", "regio": "Swindon", "land": "United Kingdom", "klanttype": "Residential, Commercial", "materialen": "Plastic, Paper, Glass, Metal", "volume": "", "lat": 51.5615327, "lon": -1.7854322}, {"naam": "Betaskips", "regio": "South Yorkshire", "land": "United Kingdom", "klanttype": "Residential, Commercial", "materialen": "Plastic, Paper, Metal", "volume": "", "lat": 53.4815334, "lon": -1.3810422}, {"naam": "Biffa plc", "regio": "Buckinghamshire", "land": "United Kingdom", "klanttype": "Residential, Commercial, Industrial", "materialen": "Plastic, Paper, Glass, Metal", "volume": "", "lat": 51.840894, "lon": -0.8998074}, {"naam": "Binn Group Ltd", "regio": "Perth and Kinross", "land": "United Kingdom", "klanttype": "Residential, Commercial, Industrial", "materialen": "Plastic, Paper, Glass, Metal", "volume": "", "lat": 56.5, "lon": -3.75}, {"naam": "Birmingham Waste Management", "regio": "West Midlands", "land": "United Kingdom", "klanttype": "Commercial, Industrial", "materialen": "Plastic, Paper, Metal", "volume": "", "lat": 52.505432, "lon": -1.9646782}, {"naam": "BJD Skip Hire Ltd.", "regio": "West Midlands", "land": "United Kingdom", "klanttype": "Residential, Commercial", "materialen": "Paper, Metal", "volume": "", "lat": 52.505432, "lon": -1.9646782}, {"naam": "Blackpool Skip Hire Ltd.", "regio": "Lancashire", "land": "United Kingdom", "klanttype": "Residential, Commercial, Industrial", "materialen": "Plastic, Paper, Glass, Metal, Organic", "volume": "", "lat": 53.8611712, "lon": -2.5650945}, {"naam": "Bob Stabler & Sons Ltd.", "regio": "East Riding of Yorkshire", "land": "United Kingdom", "klanttype": "Residential, Commercial", "materialen": "Plastic, Paper, Glass, Metal, Organic", "volume": "", "lat": 53.8735965, "lon": -0.5347788}, {"naam": "Bolton Brothers Limited", "regio": "Suffolk", "land": "United Kingdom", "klanttype": "Residential, Commercial, Industrial", "materialen": "Plastic, Paper, Metal", "volume": "", "lat": 52.2410014, "lon": 1.0465716}, {"naam": "Bostall Skips", "regio": "Greater London", "land": "United Kingdom", "klanttype": "Residential, Commercial", "materialen": "Plastic, Paper, Metal", "volume": "", "lat": 51.5074456, "lon": -0.1277653}, {"naam": "Bourne Skip Hire and Recycling Ltd.", "regio": "Lincolnshire", "land": "United Kingdom", "klanttype": "Residential, Commercial", "materialen": "Plastic, Paper, Glass, Metal", "volume": "", "lat": 53.1823034, "lon": -0.2031209}, {"naam": "Bowman Skip Hire", "regio": "Highland", "land": "United Kingdom", "klanttype": "Residential, Commercial, Industrial", "materialen": "Plastic, Paper, Glass, Metal", "volume": "", "lat": 57.5066357, "lon": -5.0038367}, {"naam": "Bright Secure Recycling", "regio": "North Yorkshire", "land": "United Kingdom", "klanttype": "", "materialen": "Paper", "volume": "", "lat": 54.1345328, "lon": -1.4986285}, {"naam": "Bristol Waste Company", "regio": "Bristol", "land": "United Kingdom", "klanttype": "Residential, Commercial", "materialen": "Plastic, Paper, Glass, Metal, Organic", "volume": "71,000", "lat": 51.4430162, "lon": -2.581661}, {"naam": "Brown Recycling Ltd.", "regio": "Stoke-on-Trent", "land": "United Kingdom", "klanttype": "Residential, Commercial, Industrial", "materialen": "Plastic, Paper, Glass, Metal", "volume": "", "lat": 53.0162014, "lon": -2.1812607}, {"naam": "Bryn Group", "regio": "Caerphilly", "land": "United Kingdom", "klanttype": "Residential, Commercial", "materialen": "Plastic, Paper, Glass, Metal", "volume": "", "lat": 51.6723809, "lon": -3.1783938}, {"naam": "Bryson Recycling", "regio": "Antrim", "land": "United Kingdom", "klanttype": "Residential", "materialen": "Plastic, Paper, Metal", "volume": "", "lat": 54.715139, "lon": -6.2192038}, {"naam": "Bucks Recycling Limited", "regio": "Buckinghamshire", "land": "United Kingdom", "klanttype": "Residential, Commercial", "materialen": "Plastic, Paper, Metal, Organic", "volume": "", "lat": 51.840894, "lon": -0.8998074}, {"naam": "Budget Skips Services", "regio": "Warwickshire", "land": "United Kingdom", "klanttype": "", "materialen": "Plastic, Paper, Glass, Metal, Organic", "volume": "", "lat": 52.3213064, "lon": -1.5536906}, {"naam": "Budget Waste Management", "regio": "Gloucestershire", "land": "United Kingdom", "klanttype": "Residential, Commercial, Industrial", "materialen": "Plastic, Paper, Metal", "volume": "", "lat": 51.7643786, "lon": -2.1880662}, {"naam": "Burton Skip Hire Ltd", "regio": "Staffordshire", "land": "United Kingdom", "klanttype": "Residential, Commercial", "materialen": "Plastic, Paper, Glass, Metal, Organic", "volume": "", "lat": 52.8246942, "lon": -2.0074547}, {"naam": "Butlers Waste Management Ltd", "regio": "Merseyside", "land": "United Kingdom", "klanttype": "", "materialen": "Paper, Metal", "volume": "", "lat": 53.4953602, "lon": -2.973938}, {"naam": "BWS Waste Management", "regio": "West Yorkshire", "land": "United Kingdom", "klanttype": "Residential, Commercial, Industrial", "materialen": "Plastic, Paper, Metal, Organic", "volume": "", "lat": 53.7414271, "lon": -1.7202004}, {"naam": "Bywaters", "regio": "City of London", "land": "United Kingdom", "klanttype": "Commercial, Industrial", "materialen": "Plastic, Paper, Glass, Metal, Organic", "volume": "", "lat": 51.5156177, "lon": -0.0919983}, {"naam": "C B Environmental Ltd", "regio": "Ceredigion", "land": "United Kingdom", "klanttype": "Residential, Commercial, Industrial", "materialen": "Plastic, Paper, Glass, Metal", "volume": "", "lat": 52.2945764, "lon": -3.952781}, {"naam": "C. L. Prosser & Co. Ltd.", "regio": "Middlesbrough", "land": "United Kingdom", "klanttype": "Residential, Commercial, Industrial", "materialen": "Plastic, Paper, Glass, Metal, Organic", "volume": "", "lat": 54.5760419, "lon": -1.2344047}, {"naam": "C.H. Middleton Ltd.", "regio": "South Yorkshire", "land": "United Kingdom", "klanttype": "Residential, Commercial", "materialen": "Paper, Metal", "volume": "", "lat": 53.4815334, "lon": -1.3810422}, {"naam": "C&G Recycling Ltd.", "regio": "Lancashire", "land": "United Kingdom", "klanttype": "Residential, Commercial", "materialen": "Paper", "volume": "", "lat": 53.8611712, "lon": -2.5650945}, {"naam": "Calder Valley Skip Hire Ltd.", "regio": "West Yorkshire", "land": "United Kingdom", "klanttype": "Residential, Commercial", "materialen": "Plastic, Paper, Glass, Metal, Organic", "volume": "", "lat": 53.7414271, "lon": -1.7202004}, {"naam": "Caledonian Recycling", "regio": "Scottish Borders", "land": "United Kingdom", "klanttype": "", "materialen": "Plastic, Paper", "volume": "", "lat": 55.583333, "lon": -2.833333}, {"naam": "Canvey Skip Hire & Recycling Ltd.", "regio": "Essex", "land": "United Kingdom", "klanttype": "Residential, Commercial", "materialen": "Plastic, Paper, Metal", "volume": "", "lat": 51.7704679, "lon": 0.4646698}, {"naam": "Cardboard 4 Cash Ltd", "regio": "West Midlands", "land": "United Kingdom", "klanttype": "Commercial, Industrial", "materialen": "Plastic, Paper", "volume": "", "lat": 52.505432, "lon": -1.9646782}, {"naam": "Cardboard King", "regio": "Merseyside", "land": "United Kingdom", "klanttype": "Residential, Commercial, Industrial", "materialen": "Plastic, Paper", "volume": "2,400", "lat": 53.4953602, "lon": -2.973938}, {"naam": "Cardiff & Caerphilly Skips Ltd.", "regio": "Glamorgan", "land": "United Kingdom", "klanttype": "Residential, Commercial, Industrial", "materialen": "Plastic, Paper, Glass, Metal, Organic", "volume": "", "lat": 52.4768638, "lon": -4.0482577}, {"naam": "Cardiff Trade Waste", "regio": "Cardiff", "land": "United Kingdom", "klanttype": "Residential, Commercial, Industrial", "materialen": "Plastic, Paper, Glass, Metal, Organic", "volume": "", "lat": 51.4816546, "lon": -3.1791934}, {"naam": "Carl Bird Ltd", "regio": "Norfolk", "land": "United Kingdom", "klanttype": "Residential, Commercial", "materialen": "Plastic, Paper, Metal, Organic", "volume": "", "lat": 52.666667, "lon": 1.0}, {"naam": "Casepak", "regio": "Leicestershire", "land": "United Kingdom", "klanttype": "Residential, Commercial, Industrial", "materialen": "Plastic, Paper, Glass, Metal", "volume": "", "lat": 52.666667, "lon": -1.0}, {"naam": "Castles Removals", "regio": "Kent", "land": "United Kingdom", "klanttype": "Residential, Commercial", "materialen": "Paper", "volume": "", "lat": 51.2070749, "lon": 0.7210362}, {"naam": "Cawleys", "regio": "Luton", "land": "United Kingdom", "klanttype": "Residential, Commercial, Industrial", "materialen": "Plastic, Paper, Glass, Metal, Organic", "volume": "", "lat": 51.891073, "lon": -0.4230304}, {"naam": "CCC Waste Management", "regio": "Lancashire", "land": "United Kingdom", "klanttype": "Commercial, Industrial", "materialen": "Plastic, Paper, Glass, Metal", "volume": "", "lat": 53.8611712, "lon": -2.5650945}, {"naam": "CD Waste Management Ltd", "regio": "Greater London", "land": "United Kingdom", "klanttype": "Commercial", "materialen": "Plastic, Paper, Glass, Metal, Organic", "volume": "", "lat": 51.5074456, "lon": -0.1277653}, {"naam": "CDDL Recycling Ltd.", "regio": "Kent", "land": "United Kingdom", "klanttype": "Residential, Commercial, Industrial", "materialen": "Plastic, Paper, Glass, Metal, Organic", "volume": "", "lat": 51.2070749, "lon": 0.7210362}, {"naam": "Chaffinch Document", "regio": "Stoke-on-Trent", "land": "United Kingdom", "klanttype": "Commercial, Industrial", "materialen": "Paper", "volume": "", "lat": 53.0162014, "lon": -2.1812607}, {"naam": "Chambers Waste Management plc", "regio": "Surrey", "land": "United Kingdom", "klanttype": "Commercial, Industrial", "materialen": "Plastic, Paper, Glass, Metal", "volume": "", "lat": 51.2715316, "lon": -0.3414524}, {"naam": "Cheap Skips (IW) Ltd.", "regio": "Isle of Wight", "land": "United Kingdom", "klanttype": "Residential, Commercial", "materialen": "Paper", "volume": "", "lat": 50.6710482, "lon": -1.3327111}, {"naam": "Cherry Hill Waste Ltd", "regio": "Staffordshire", "land": "United Kingdom", "klanttype": "Residential, Commercial, Industrial", "materialen": "Plastic, Paper, Glass, Metal, Organic", "volume": "", "lat": 52.8246942, "lon": -2.0074547}, {"naam": "Cheshire Waste and Skip Hire Ltd.", "regio": "Cheshire West and Chester", "land": "United Kingdom", "klanttype": "Residential, Commercial", "materialen": "Plastic, Paper, Organic", "volume": "", "lat": 53.1637979, "lon": -2.7285361}, {"naam": "Cheshire West Recycling Limited", "regio": "Cheshire West and Chester", "land": "United Kingdom", "klanttype": "Residential, Commercial", "materialen": "Plastic, Paper, Glass, Metal, Organic", "volume": "", "lat": 53.1637979, "lon": -2.7285361}, {"naam": "Choice Packaging Solutions Limited", "regio": "Milton Keynes", "land": "United Kingdom", "klanttype": "Commercial, Industrial", "materialen": "Plastic, Paper, Glass, Metal", "volume": "", "lat": 52.0406502, "lon": -0.7594092}, {"naam": "Cireco (Scotland) LLP", "regio": "Fife", "land": "United Kingdom", "klanttype": "Residential, Commercial, Industrial", "materialen": "Plastic, Paper, Metal", "volume": "100,000", "lat": 56.3333331, "lon": -3.0000001}, {"naam": "Clearaway Limited", "regio": "Worcestershire", "land": "United Kingdom", "klanttype": "Residential, Commercial, Industrial", "materialen": "Paper, Glass, Organic", "volume": "", "lat": 52.2109495, "lon": -2.1569555}, {"naam": "Cleveland Waste Paper Ltd", "regio": "Hartlepool", "land": "United Kingdom", "klanttype": "Commercial, Industrial", "materialen": "Paper", "volume": "", "lat": 54.6857276, "lon": -1.2093696}, {"naam": "Clews Recycling Ltd", "regio": "Warwickshire", "land": "United Kingdom", "klanttype": "Residential, Commercial", "materialen": "Plastic, Paper, Glass, Metal, Organic", "volume": "", "lat": 52.3213064, "lon": -1.5536906}, {"naam": "Coastal Recycling", "regio": "Devon", "land": "United Kingdom", "klanttype": "Residential, Commercial, Industrial", "materialen": "Plastic, Paper, Glass, Metal", "volume": "312,000", "lat": 50.7241405, "lon": -3.6607788}, {"naam": "Collard Group Ltd", "regio": "Hampshire", "land": "United Kingdom", "klanttype": "Residential, Commercial, Industrial", "materialen": "Plastic, Paper, Glass, Metal, Organic", "volume": "", "lat": 51.0449814, "lon": -1.2433102}, {"naam": "Collect and Recycle", "regio": "Northamptonshire", "land": "United Kingdom", "klanttype": "Commercial", "materialen": "Paper", "volume": "", "lat": 52.3106138, "lon": -0.865913}, {"naam": "Colne Valley Skip Hire", "regio": "West Yorkshire", "land": "United Kingdom", "klanttype": "Residential, Commercial", "materialen": "Paper, Metal, Organic", "volume": "", "lat": 53.7414271, "lon": -1.7202004}, {"naam": "Cory Group", "regio": "Greater London", "land": "United Kingdom", "klanttype": "", "materialen": "Plastic, Paper, Glass, Metal", "volume": "", "lat": 51.5074456, "lon": -0.1277653}, {"naam": "Country Mini Skips Ltd.", "regio": "Wiltshire", "land": "United Kingdom", "klanttype": "Residential, Commercial, Industrial", "materialen": "Plastic, Paper, Glass, Metal, Organic", "volume": "", "lat": 51.324162, "lon": -1.9032487}, {"naam": "Countrystyle Recycling Ltd.", "regio": "Kent", "land": "United Kingdom", "klanttype": "Residential, Commercial, Industrial", "materialen": "Plastic, Paper, Glass, Metal, Organic", "volume": "", "lat": 51.2070749, "lon": 0.7210362}, {"naam": "Cox Skip and Waste Management Ltd.", "regio": "Bridgend", "land": "United Kingdom", "klanttype": "Residential, Commercial", "materialen": "Plastic, Paper, Metal, Organic", "volume": "", "lat": 51.5049859, "lon": -3.5756674}, {"naam": "Cox Skips", "regio": "West Sussex", "land": "United Kingdom", "klanttype": "Residential, Commercial", "materialen": "Plastic, Paper, Glass, Metal", "volume": "", "lat": 51.0, "lon": -0.416667}, {"naam": "Crossley Evans Ltd", "regio": "West Yorkshire", "land": "United Kingdom", "klanttype": "Residential, Commercial, Industrial", "materialen": "Plastic, Paper, Glass, Metal", "volume": "", "lat": 53.7414271, "lon": -1.7202004}, {"naam": "CS Recycling Ltd.", "regio": "Hertfordshire", "land": "United Kingdom", "klanttype": "Commercial, Industrial", "materialen": "Plastic, Paper", "volume": "", "lat": 51.8400523, "lon": -0.0978552}, {"naam": "CSH Environmental", "regio": "Essex", "land": "United Kingdom", "klanttype": "Commercial", "materialen": "Plastic, Paper, Glass, Metal, Organic", "volume": "80,000", "lat": 51.7704679, "lon": 0.4646698}, {"naam": "Cube Records Management Services Ltd", "regio": "East Sussex", "land": "United Kingdom", "klanttype": "Commercial", "materialen": "Paper", "volume": "", "lat": 50.9404266, "lon": 0.3699978}, {"naam": "Cumbria Waste Group", "regio": "Cumbria", "land": "United Kingdom", "klanttype": "Residential, Commercial, Industrial", "materialen": "Plastic, Paper, Glass, Metal", "volume": "", "lat": 54.6143136, "lon": -2.9420899}, {"naam": "Curley Skip Hire Ltd.", "regio": "Greater London", "land": "United Kingdom", "klanttype": "Residential, Commercial, Industrial", "materialen": "Paper, Metal", "volume": "", "lat": 51.5074456, "lon": -0.1277653}, {"naam": "CWM Environmental Ltd.", "regio": "Carmarthenshire", "land": "United Kingdom", "klanttype": "Residential, Commercial", "materialen": "Plastic, Paper, Glass, Metal", "volume": "", "lat": 51.8936698, "lon": -4.2172827}, {"naam": "D & E Roberts Ltd", "regio": "Surrey", "land": "United Kingdom", "klanttype": "Residential, Commercial, Industrial", "materialen": "Plastic, Paper, Organic", "volume": "", "lat": 51.2715316, "lon": -0.3414524}, {"naam": "D A Culling Scrap Metals Ltd.", "regio": "Norfolk", "land": "United Kingdom", "klanttype": "Residential, Commercial, Industrial", "materialen": "Plastic, Paper, Metal", "volume": "", "lat": 52.666667, "lon": 1.0}, {"naam": "D.W Parker Skip Hire", "regio": "North Ayrshire", "land": "United Kingdom", "klanttype": "Residential, Commercial", "materialen": "Plastic, Paper", "volume": "", "lat": 55.7278508, "lon": -4.7271767}, {"naam": "Darcy Skips Ltd.", "regio": "Greater London", "land": "United Kingdom", "klanttype": "Residential, Commercial", "materialen": "Plastic, Paper, Glass, Metal, Organic", "volume": "", "lat": 51.5074456, "lon": -0.1277653}, {"naam": "Datashredders", "regio": "Cambridgeshire", "land": "United Kingdom", "klanttype": "Residential, Commercial", "materialen": "Plastic, Paper", "volume": "", "lat": 52.3729017, "lon": -0.044936}, {"naam": "Dave Peat Waste Ltd", "regio": "Cornwall", "land": "United Kingdom", "klanttype": "Residential, Commercial", "materialen": "Paper, Glass, Metal", "volume": "", "lat": 50.4433489, "lon": -4.6246566}, {"naam": "David Ritchie & Sons Ltd", "regio": "Highland", "land": "United Kingdom", "klanttype": "Residential, Commercial, Industrial", "materialen": "Plastic, Paper, Metal", "volume": "", "lat": 57.5066357, "lon": -5.0038367}, {"naam": "Davies Skip Hire", "regio": "Worcestershire", "land": "United Kingdom", "klanttype": "Residential, Commercial", "materialen": "Plastic, Paper", "volume": "", "lat": 52.2109495, "lon": -2.1569555}, {"naam": "De-Struct Ltd", "regio": "Leicestershire", "land": "United Kingdom", "klanttype": "Commercial", "materialen": "Plastic, Paper, Glass", "volume": "", "lat": 52.666667, "lon": -1.0}, {"naam": "Derwen Aggregates", "regio": "Glamorgan", "land": "United Kingdom", "klanttype": "", "materialen": "Plastic, Paper, Glass, Metal, Organic", "volume": "", "lat": 52.4768638, "lon": -4.0482577}, {"naam": "Derwent Recycling Services Ltd.", "regio": "Cumbria", "land": "United Kingdom", "klanttype": "Commercial, Industrial", "materialen": "Plastic, Paper", "volume": "", "lat": 54.6143136, "lon": -2.9420899}, {"naam": "Derwent Waste Management", "regio": "Derbyshire", "land": "United Kingdom", "klanttype": "Residential, Commercial, Industrial", "materialen": "Plastic, Paper, Metal", "volume": "", "lat": 53.1185033, "lon": -1.5566179}, {"naam": "Devon Contract Waste Ltd.", "regio": "Devon", "land": "United Kingdom", "klanttype": "Commercial, Industrial", "materialen": "Paper, Glass, Metal, Organic", "volume": "25,000", "lat": 50.7241405, "lon": -3.6607788}, {"naam": "Dixons Skips", "regio": "South Yorkshire", "land": "United Kingdom", "klanttype": "Residential, Commercial, Industrial", "materialen": "Plastic, Paper, Glass, Metal", "volume": "", "lat": 53.4815334, "lon": -1.3810422}, {"naam": "Donibristle Skip Hire & Recycling Ltd", "regio": "Fife", "land": "United Kingdom", "klanttype": "Commercial", "materialen": "Plastic, Paper", "volume": "", "lat": 56.3333331, "lon": -3.0000001}, {"naam": "Dow Group Ltd", "regio": "North Lanarkshire", "land": "United Kingdom", "klanttype": "Residential, Commercial, Industrial", "materialen": "Plastic, Paper, Metal", "volume": "", "lat": 55.8830507, "lon": -3.9461551}, {"naam": "DP Skip Hire Ltd", "regio": "Stoke-on-Trent", "land": "United Kingdom", "klanttype": "Residential, Commercial, Industrial", "materialen": "Plastic, Paper, Metal, Organic", "volume": "", "lat": 53.0162014, "lon": -2.1812607}, {"naam": "Dunmow Group", "regio": "Essex", "land": "United Kingdom", "klanttype": "Residential, Commercial, Industrial", "materialen": "Plastic, Paper, Glass, Metal, Organic", "volume": "", "lat": 51.7704679, "lon": 0.4646698}, {"naam": "E Team Ltd.", "regio": "Carmarthenshire", "land": "United Kingdom", "klanttype": "Commercial, Industrial", "materialen": "Plastic, Paper", "volume": "", "lat": 51.8936698, "lon": -4.2172827}, {"naam": "E.A. Barnes & Sons Ltd", "regio": "Staffordshire", "land": "United Kingdom", "klanttype": "Residential, Commercial, Industrial", "materialen": "Plastic, Paper, Metal", "volume": "", "lat": 52.8246942, "lon": -2.0074547}, {"naam": "E.E. Green & Son Ltd", "regio": "Norfolk", "land": "United Kingdom", "klanttype": "Residential, Commercial", "materialen": "Plastic, Paper, Glass, Metal", "volume": "", "lat": 52.666667, "lon": 1.0}, {"naam": "East Coast Waste Limited", "regio": "Norfolk", "land": "United Kingdom", "klanttype": "Residential, Commercial, Industrial", "materialen": "Plastic, Paper, Glass, Metal, Organic", "volume": "", "lat": 52.666667, "lon": 1.0}, {"naam": "East Kent Recycling Ltd", "regio": "Kent", "land": "United Kingdom", "klanttype": "Residential, Commercial", "materialen": "Plastic, Paper, Glass, Metal", "volume": "250,000", "lat": 51.2070749, "lon": 0.7210362}, {"naam": "East Lincs Recycling Limited", "regio": "Lincolnshire", "land": "United Kingdom", "klanttype": "Commercial, Industrial", "materialen": "Plastic, Paper, Glass, Metal", "volume": "", "lat": 53.1823034, "lon": -0.2031209}, {"naam": "Easy Load Limited", "regio": "Kent", "land": "United Kingdom", "klanttype": "Residential, Commercial", "materialen": "Paper, Metal", "volume": "", "lat": 51.2070749, "lon": 0.7210362}, {"naam": "Easyloaders Skip & Grab Hire Ltd.", "regio": "Greater London", "land": "United Kingdom", "klanttype": "Residential, Commercial", "materialen": "Paper, Metal", "volume": "", "lat": 51.5074456, "lon": -0.1277653}, {"naam": "Eco Recycling Ltd.", "regio": "Lancashire", "land": "United Kingdom", "klanttype": "Commercial", "materialen": "Plastic, Paper", "volume": "", "lat": 53.8611712, "lon": -2.5650945}, {"naam": "Eco Waste & Recycling Ltd", "regio": "Hertfordshire", "land": "United Kingdom", "klanttype": "Residential, Commercial", "materialen": "Plastic, Paper, Glass, Metal, Organic", "volume": "", "lat": 51.8400523, "lon": -0.0978552}, {"naam": "Eco-Power Skips Ltd.", "regio": "South Yorkshire", "land": "United Kingdom", "klanttype": "Residential, Commercial", "materialen": "Plastic, Paper, Glass, Metal, Organic", "volume": "", "lat": 53.4815334, "lon": -1.3810422}, {"naam": "Ecogen Recycling Ltd", "regio": "Hampshire", "land": "United Kingdom", "klanttype": "Commercial, Industrial", "materialen": "Plastic, Paper", "volume": "48,000", "lat": 51.0449814, "lon": -1.2433102}, {"naam": "Edgware Waste Paper Recycling Ltd.", "regio": "Hertfordshire", "land": "United Kingdom", "klanttype": "", "materialen": "Paper", "volume": "", "lat": 51.8400523, "lon": -0.0978552}, {"naam": "Edwards Recycling Ltd", "regio": "Greater London", "land": "United Kingdom", "klanttype": "Residential, Commercial", "materialen": "Plastic, Paper, Glass, Metal", "volume": "30,000", "lat": 51.5074456, "lon": -0.1277653}, {"naam": "EF Plastics UK Ltd", "regio": "Norfolk", "land": "United Kingdom", "klanttype": "Commercial, Industrial", "materialen": "Plastic, Paper", "volume": "", "lat": 52.666667, "lon": 1.0}, {"naam": "EIS Waste Services Ltd", "regio": "Aberdeenshire", "land": "United Kingdom", "klanttype": "Residential, Commercial, Industrial", "materialen": "Plastic, Paper, Glass, Metal, Organic", "volume": "", "lat": 57.166667, "lon": -2.666667}, {"naam": "Elite Recycling Solutions Ltd", "regio": "Hertfordshire", "land": "United Kingdom", "klanttype": "Commercial, Industrial", "materialen": "Plastic, Paper, Glass, Metal, Organic", "volume": "", "lat": 51.8400523, "lon": -0.0978552}, {"naam": "Ellgia Recycling", "regio": "Cambridgeshire", "land": "United Kingdom", "klanttype": "Residential, Commercial, Industrial", "materialen": "Plastic, Paper, Glass, Metal, Organic", "volume": "", "lat": 52.3729017, "lon": -0.044936}, {"naam": "Elsa Recycling Group", "regio": "Greater Manchester", "land": "United Kingdom", "klanttype": "", "materialen": "Plastic, Paper", "volume": "", "lat": 53.5065249, "lon": -2.3374401}, {"naam": "EMS Waste Services", "regio": "Devon", "land": "United Kingdom", "klanttype": "Residential, Commercial, Industrial", "materialen": "Plastic, Paper, Glass, Metal, Organic", "volume": "150,000", "lat": 50.7241405, "lon": -3.6607788}, {"naam": "Enava Limited", "regio": "Glamorgan", "land": "United Kingdom", "klanttype": "", "materialen": "Paper", "volume": "50,000", "lat": 52.4768638, "lon": -4.0482577}, {"naam": "Entire Recycling Limited", "regio": "Leicestershire", "land": "United Kingdom", "klanttype": "Commercial, Industrial", "materialen": "Plastic, Paper, Metal", "volume": "", "lat": 52.666667, "lon": -1.0}, {"naam": "Enva", "regio": "Renfrewshire", "land": "United Kingdom", "klanttype": "Residential, Commercial", "materialen": "Paper, Metal", "volume": "", "lat": 55.833333, "lon": -4.5}, {"naam": "Enviro Kleen (Scotland) Ltd.", "regio": "Fife", "land": "United Kingdom", "klanttype": "Commercial, Industrial", "materialen": "Plastic, Paper, Glass, Metal", "volume": "", "lat": 56.3333331, "lon": -3.0000001}, {"naam": "Enviro Skip Hire Ltd", "regio": "Cheshire East", "land": "United Kingdom", "klanttype": "Residential, Commercial, Industrial", "materialen": "Plastic, Paper, Metal, Organic", "volume": "", "lat": 53.1673422, "lon": -2.2928803}, {"naam": "Enviro Waste Management", "regio": "Greater London", "land": "United Kingdom", "klanttype": "", "materialen": "Plastic, Paper, Metal", "volume": "", "lat": 51.5074456, "lon": -0.1277653}, {"naam": "EnviroCraft Waste Solutions", "regio": "Cheshire West and Chester", "land": "United Kingdom", "klanttype": "Commercial, Industrial", "materialen": "Plastic, Paper, Glass, Metal, Organic", "volume": "", "lat": 53.1637979, "lon": -2.7285361}, {"naam": "Envirogreen Polymers Ltd", "regio": "Armagh", "land": "United Kingdom", "klanttype": "Commercial, Industrial", "materialen": "Plastic, Paper, Glass, Metal, Organic", "volume": "", "lat": 54.3161086, "lon": -6.7189182}, {"naam": "Environment First Ltd.", "regio": "Kent", "land": "United Kingdom", "klanttype": "Commercial", "materialen": "Plastic, Paper", "volume": "", "lat": 51.2070749, "lon": 0.7210362}, {"naam": "Environmental Waste Controls Ltd", "regio": "Merseyside", "land": "United Kingdom", "klanttype": "Commercial, Industrial", "materialen": "Plastic, Paper, Metal", "volume": "", "lat": 53.4953602, "lon": -2.973938}, {"naam": "Erne Skip Hire & Recycling Ltd.", "regio": "Fermanagh", "land": "United Kingdom", "klanttype": "Residential, Commercial", "materialen": "Plastic, Paper, Metal, Organic", "volume": "", "lat": 54.3243995, "lon": -7.7223985}, {"naam": "Essex Reclamation Ltd", "regio": "Essex", "land": "United Kingdom", "klanttype": "Commercial, Industrial", "materialen": "Plastic, Paper, Glass, Metal", "volume": "50,000", "lat": 51.7704679, "lon": 0.4646698}, {"naam": "ETM Recycling", "regio": "Bristol", "land": "United Kingdom", "klanttype": "Residential, Commercial", "materialen": "Plastic, Paper, Metal", "volume": "", "lat": 51.4430162, "lon": -2.581661}, {"naam": "FCC Recycling (UK) Limited", "regio": "South Yorkshire", "land": "United Kingdom", "klanttype": "Residential, Commercial, Industrial", "materialen": "Plastic, Paper, Glass, Metal, Organic", "volume": "", "lat": 53.4815334, "lon": -1.3810422}, {"naam": "First Mile", "regio": "Greater London", "land": "United Kingdom", "klanttype": "", "materialen": "Plastic, Paper, Glass, Metal", "volume": "", "lat": 51.5074456, "lon": -0.1277653}, {"naam": "Fleet Skips", "regio": "Kent", "land": "United Kingdom", "klanttype": "Residential, Commercial, Industrial", "materialen": "Paper, Glass, Metal", "volume": "", "lat": 51.2070749, "lon": 0.7210362}, {"naam": "Fletchers Waste Management", "regio": "South Yorkshire", "land": "United Kingdom", "klanttype": "Residential, Commercial, Industrial", "materialen": "Plastic, Paper, Glass, Metal", "volume": "", "lat": 53.4815334, "lon": -1.3810422}, {"naam": "Fortress Recycling and Resource Management Ltd.", "regio": "Warwickshire", "land": "United Kingdom", "klanttype": "Commercial", "materialen": "Plastic, Paper, Glass, Metal, Organic", "volume": "", "lat": 52.3213064, "lon": -1.5536906}, {"naam": "Forward Environmental Limited", "regio": "South Yorkshire", "land": "United Kingdom", "klanttype": "Residential, Commercial", "materialen": "Plastic, Paper, Metal", "volume": "", "lat": 53.4815334, "lon": -1.3810422}, {"naam": "Frank Flannigan Skip Hire", "regio": "Northumberland", "land": "United Kingdom", "klanttype": "Residential, Commercial, Industrial", "materialen": "Plastic, Paper, Glass, Metal, Organic", "volume": "", "lat": 55.25, "lon": -2.000559}, {"naam": "Freedom Recycling Ltd", "regio": "Norfolk", "land": "United Kingdom", "klanttype": "Residential, Commercial", "materialen": "Plastic, Paper, Metal", "volume": "", "lat": 52.666667, "lon": 1.0}, {"naam": "Fresh Start Waste Services Ltd.", "regio": "Greater Manchester", "land": "United Kingdom", "klanttype": "Residential, Commercial, Industrial", "materialen": "Plastic, Paper, Glass, Metal, Organic", "volume": "", "lat": 53.5065249, "lon": -2.3374401}, {"naam": "G & C Waste Paper Co. Ltd.", "regio": "Hertfordshire", "land": "United Kingdom", "klanttype": "", "materialen": "Plastic, Paper, Metal", "volume": "", "lat": 51.8400523, "lon": -0.0978552}, {"naam": "G.H.S Recycling Ltd.", "regio": "Portsmouth", "land": "United Kingdom", "klanttype": "Commercial, Industrial", "materialen": "Plastic, Paper, Metal", "volume": "", "lat": 50.800031, "lon": -1.0906023}, {"naam": "Gaskells Waste Services Ltd", "regio": "Merseyside", "land": "United Kingdom", "klanttype": "Residential, Commercial, Industrial", "materialen": "Plastic, Paper, Glass, Metal, Organic", "volume": "70,000", "lat": 53.4953602, "lon": -2.973938}, {"naam": "GB Waste Management", "regio": "Greater London", "land": "United Kingdom", "klanttype": "Residential, Commercial", "materialen": "Plastic, Paper, Glass, Metal, Organic", "volume": "", "lat": 51.5074456, "lon": -0.1277653}, {"naam": "GD Golding Skip Hire Ltd.", "regio": "Staffordshire", "land": "United Kingdom", "klanttype": "Residential, Commercial, Industrial", "materialen": "Plastic, Paper, Glass, Metal, Organic", "volume": "", "lat": 52.8246942, "lon": -2.0074547}, {"naam": "Genus Recycling", "regio": "Greater Manchester", "land": "United Kingdom", "klanttype": "", "materialen": "Paper", "volume": "", "lat": 53.5065249, "lon": -2.3374401}, {"naam": "Gillett Evironmental Ltd", "regio": "Lancashire", "land": "United Kingdom", "klanttype": "Residential, Commercial", "materialen": "Plastic, Paper, Metal", "volume": "", "lat": 53.8611712, "lon": -2.5650945}, {"naam": "Global Paper and Plastic Ltd.", "regio": "Greater Manchester", "land": "United Kingdom", "klanttype": "Commercial, Industrial", "materialen": "Plastic, Paper", "volume": "", "lat": 53.5065249, "lon": -2.3374401}, {"naam": "GNG Waste Management Ltd.", "regio": "Hartlepool", "land": "United Kingdom", "klanttype": "Residential, Commercial", "materialen": "Plastic, Paper, Glass, Metal", "volume": "", "lat": 54.6857276, "lon": -1.2093696}, {"naam": "Grassroots Recycling Ltd", "regio": "Wiltshire", "land": "United Kingdom", "klanttype": "Industrial", "materialen": "Plastic, Paper", "volume": "", "lat": 51.324162, "lon": -1.9032487}, {"naam": "Green Recycling Ltd.", "regio": "Essex", "land": "United Kingdom", "klanttype": "Commercial, Industrial", "materialen": "Plastic, Paper, Glass, Metal", "volume": "", "lat": 51.7704679, "lon": 0.4646698}, {"naam": "Green Skip Hire Ltd.", "regio": "Telford and Wrekin", "land": "United Kingdom", "klanttype": "Residential, Commercial", "materialen": "Plastic, Paper, Glass, Metal, Organic", "volume": "", "lat": 52.7214452, "lon": -2.5008624}, {"naam": "Green’s Recycling", "regio": "Cardiff", "land": "United Kingdom", "klanttype": "Residential, Commercial", "materialen": "Plastic, Paper, Glass, Metal", "volume": "", "lat": 51.4816546, "lon": -3.1791934}, {"naam": "Greenacres Skip Hire Ltd.", "regio": "Pembrokeshire", "land": "United Kingdom", "klanttype": "Residential, Commercial", "materialen": "Plastic, Paper", "volume": "", "lat": 51.8339209, "lon": -4.916667}, {"naam": "Grinsell’s Skip Hire Ltd.", "regio": "West Midlands", "land": "United Kingdom", "klanttype": "", "materialen": "Plastic, Paper, Glass, Metal, Organic", "volume": "", "lat": 52.505432, "lon": -1.9646782}, {"naam": "Grist Environmental Ltd", "regio": "Wiltshire", "land": "United Kingdom", "klanttype": "Residential, Commercial, Industrial", "materialen": "Plastic, Paper, Glass, Metal, Organic", "volume": "", "lat": 51.324162, "lon": -1.9032487}, {"naam": "Grundon Waste Management Limited", "regio": "Oxfordshire", "land": "United Kingdom", "klanttype": "Residential, Commercial", "materialen": "Plastic, Paper, Glass, Metal", "volume": "", "lat": 51.833333, "lon": -1.25}, {"naam": "GSH Waste Recycling Ltd.", "regio": "Halton", "land": "United Kingdom", "klanttype": "Residential, Commercial, Industrial", "materialen": "Plastic, Paper, Glass, Metal, Organic", "volume": "", "lat": 53.3538526, "lon": -2.7427829}, {"naam": "Gwynedd Skip & Plant Hire Ltd.", "regio": "Gwynedd", "land": "United Kingdom", "klanttype": "Residential, Commercial, Industrial", "materialen": "Plastic, Paper, Glass, Metal, Organic", "volume": "", "lat": 52.9089585, "lon": -3.8335244}, {"naam": "Hamilton Waste & Recycling Ltd", "regio": "East Lothian", "land": "United Kingdom", "klanttype": "Commercial, Industrial", "materialen": "Plastic, Paper, Glass, Metal, Organic", "volume": "", "lat": 55.915797, "lon": -2.7511952}, {"naam": "Harkenn Ltd Recycling", "regio": "Lincolnshire", "land": "United Kingdom", "klanttype": "", "materialen": "Plastic, Paper", "volume": "", "lat": 53.1823034, "lon": -0.2031209}, {"naam": "Hartley's Skip Hire", "regio": "Staffordshire", "land": "United Kingdom", "klanttype": "Residential, Commercial, Industrial", "materialen": "Plastic, Paper, Metal, Organic", "volume": "", "lat": 52.8246942, "lon": -2.0074547}, {"naam": "Haulaway Ltd", "regio": "East Sussex", "land": "United Kingdom", "klanttype": "Residential, Commercial, Industrial", "materialen": "Plastic, Paper, Glass, Metal, Organic", "volume": "", "lat": 50.9404266, "lon": 0.3699978}, {"naam": "Hawkins & Scott Recycling & Waste Management", "regio": "Surrey", "land": "United Kingdom", "klanttype": "Residential, Commercial, Industrial", "materialen": "Plastic, Paper, Glass, Metal, Organic", "volume": "", "lat": 51.2715316, "lon": -0.3414524}, {"naam": "Heard Group Services", "regio": "Essex", "land": "United Kingdom", "klanttype": "Residential, Commercial", "materialen": "Plastic, Paper, Metal, Organic", "volume": "", "lat": 51.7704679, "lon": 0.4646698}, {"naam": "Heatherland Ltd", "regio": "Essex", "land": "United Kingdom", "klanttype": "Residential, Commercial, Industrial", "materialen": "Plastic, Paper, Metal, Organic", "volume": "", "lat": 51.7704679, "lon": 0.4646698}, {"naam": "Henshaws Envirocare Ltd", "regio": "Cheshire East", "land": "United Kingdom", "klanttype": "Residential, Commercial, Industrial", "materialen": "Plastic, Paper, Glass, Metal, Organic", "volume": "", "lat": 53.1673422, "lon": -2.2928803}, {"naam": "Hereford Pedicabs Ltd.", "regio": "Herefordshire", "land": "United Kingdom", "klanttype": "", "materialen": "Plastic, Paper, Glass, Metal", "volume": "", "lat": 52.083333, "lon": -2.75}, {"naam": "Highlander International Recycling Ltd", "regio": "South Lanarkshire", "land": "United Kingdom", "klanttype": "Residential, Commercial, Industrial", "materialen": "Paper, Glass", "volume": "", "lat": 55.5831634, "lon": -3.8332212}, {"naam": "Hills Waste Solutions Limited", "regio": "Swindon", "land": "United Kingdom", "klanttype": "Residential, Commercial, Industrial", "materialen": "Plastic, Paper, Glass, Metal", "volume": "", "lat": 51.5615327, "lon": -1.7854322}, {"naam": "HomeShredUK", "regio": "West Sussex", "land": "United Kingdom", "klanttype": "Residential, Commercial", "materialen": "Paper", "volume": "", "lat": 51.0, "lon": -0.416667}, {"naam": "Horrocks Waste Management Ltd.", "regio": "Greater Manchester", "land": "United Kingdom", "klanttype": "Residential, Commercial", "materialen": "Plastic, Paper, Glass, Metal", "volume": "", "lat": 53.5065249, "lon": -2.3374401}, {"naam": "HTL Recycling & Waste Management Services", "regio": "Greater London", "land": "United Kingdom", "klanttype": "Commercial, Industrial", "materialen": "Plastic, Paper, Metal", "volume": "", "lat": 51.5074456, "lon": -0.1277653}, {"naam": "Huhtamaki Paper Recycling", "regio": "Lisburn", "land": "United Kingdom", "klanttype": "Commercial, Industrial", "materialen": "Plastic, Paper", "volume": "", "lat": 54.5112856, "lon": -6.046717}, {"naam": "Humberside Reclamation Ltd", "regio": "Kingston upon Hull", "land": "United Kingdom", "klanttype": "Residential, Commercial, Industrial", "materialen": "Plastic, Paper, Metal", "volume": "", "lat": 53.7623863, "lon": -0.3301214}, {"naam": "Hunt Brothers", "regio": "Leicestershire", "land": "United Kingdom", "klanttype": "Residential, Commercial", "materialen": "Plastic, Paper, Metal", "volume": "", "lat": 52.666667, "lon": -1.0}, {"naam": "HW Martin Waste Ltd", "regio": "Derbyshire", "land": "United Kingdom", "klanttype": "Residential, Commercial", "materialen": "Plastic, Paper, Glass, Metal", "volume": "", "lat": 53.1185033, "lon": -1.5566179}, {"naam": "Irish Waste Services Ltd.", "regio": "Lisburn", "land": "United Kingdom", "klanttype": "Residential, Commercial, Industrial", "materialen": "Plastic, Paper, Glass, Metal", "volume": "", "lat": 54.5112856, "lon": -6.046717}, {"naam": "ISL Waste Services Ltd", "regio": "West Midlands", "land": "United Kingdom", "klanttype": "", "materialen": "Plastic, Paper, Glass, Metal, Organic", "volume": "", "lat": 52.505432, "lon": -1.9646782}, {"naam": "ISM Waste & Recycling", "regio": "Greater Manchester", "land": "United Kingdom", "klanttype": "Residential, Commercial, Industrial", "materialen": "Plastic, Paper, Glass, Metal, Organic", "volume": "", "lat": 53.5065249, "lon": -2.3374401}, {"naam": "J & M Murdoch & Son Ltd", "regio": "City of Glasgow", "land": "United Kingdom", "klanttype": "", "materialen": "Plastic, Paper, Metal", "volume": "", "lat": 55.8555116, "lon": -4.2262307}, {"naam": "J Gordon Williamson Ltd", "regio": "Moray", "land": "United Kingdom", "klanttype": "Commercial", "materialen": "Paper, Metal, Organic", "volume": "", "lat": 57.416667, "lon": -3.25}, {"naam": "J. Booth Millward Cardboard Recycling", "regio": "Derbyshire", "land": "United Kingdom", "klanttype": "Residential, Commercial, Industrial", "materialen": "Plastic, Paper", "volume": "600", "lat": 53.1185033, "lon": -1.5566179}, {"naam": "J&B Recycling Limited", "regio": "Hartlepool", "land": "United Kingdom", "klanttype": "Residential, Commercial, Industrial", "materialen": "Plastic, Paper, Glass, Metal, Organic", "volume": "200,000", "lat": 54.6857276, "lon": -1.2093696}, {"naam": "James Waste Management LLP", "regio": "Essex", "land": "United Kingdom", "klanttype": "Residential, Commercial, Industrial", "materialen": "Plastic, Paper, Glass", "volume": "", "lat": 51.7704679, "lon": 0.4646698}, {"naam": "JMC Metal and Waste Recycling Limited", "regio": "Tyne and Wear", "land": "United Kingdom", "klanttype": "Residential, Commercial, Industrial", "materialen": "Plastic, Paper, Glass, Metal, Organic", "volume": "", "lat": 54.9391774, "lon": -1.5948712}, {"naam": "John Noble Skip Hire and Recycling", "regio": "North Yorkshire", "land": "United Kingdom", "klanttype": "Residential, Commercial", "materialen": "Plastic, Paper, Glass", "volume": "", "lat": 54.1345328, "lon": -1.4986285}, {"naam": "Jones Skip Hire (Wolverhampton) Ltd", "regio": "West Midlands", "land": "United Kingdom", "klanttype": "Residential, Commercial, Industrial", "materialen": "Plastic, Paper, Glass, Metal, Organic", "volume": "", "lat": 52.505432, "lon": -1.9646782}, {"naam": "JWS Waste and Recycling Services Ltd", "regio": "Greater Manchester", "land": "United Kingdom", "klanttype": "Residential, Commercial, Industrial", "materialen": "Plastic, Paper, Glass, Metal, Organic", "volume": "", "lat": 53.5065249, "lon": -2.3374401}, {"naam": "KC Skip Hire & Recycling", "regio": "Down", "land": "United Kingdom", "klanttype": "", "materialen": "Plastic, Paper", "volume": "", "lat": 54.3518644, "lon": -5.9616165}, {"naam": "KCM Waste Management Ltd", "regio": "South Yorkshire", "land": "United Kingdom", "klanttype": "Residential, Commercial", "materialen": "Plastic, Paper, Glass, Metal, Organic", "volume": "", "lat": 53.4815334, "lon": -1.3810422}, {"naam": "Kenny Waste Management", "regio": "Greater Manchester", "land": "United Kingdom", "klanttype": "Residential, Commercial", "materialen": "Plastic, Paper, Glass, Metal", "volume": "", "lat": 53.5065249, "lon": -2.3374401}, {"naam": "King Brothers Ltd", "regio": "Dumfries and Galloway", "land": "United Kingdom", "klanttype": "Residential, Commercial", "materialen": "Plastic, Paper, Glass, Metal", "volume": "", "lat": 55.083333, "lon": -3.833333}, {"naam": "KP Waste Company", "regio": "Hertfordshire", "land": "United Kingdom", "klanttype": "Residential, Commercial", "materialen": "Plastic, Paper, Metal", "volume": "", "lat": 51.8400523, "lon": -0.0978552}, {"naam": "Lampton Services", "regio": "Greater London", "land": "United Kingdom", "klanttype": "Residential, Commercial", "materialen": "Plastic, Paper, Glass, Metal", "volume": "", "lat": 51.5074456, "lon": -0.1277653}, {"naam": "LAS Recycling Limited", "regio": "Ceredigion", "land": "United Kingdom", "klanttype": "Residential, Commercial", "materialen": "Plastic, Paper, Glass, Metal, Organic", "volume": "", "lat": 52.2945764, "lon": -3.952781}, {"naam": "Levenseat Resource Management", "regio": "South Lanarkshire", "land": "United Kingdom", "klanttype": "Residential, Commercial", "materialen": "Plastic, Paper, Glass, Metal", "volume": "", "lat": 55.5831634, "lon": -3.8332212}, {"naam": "Ling Group", "regio": "Kent", "land": "United Kingdom", "klanttype": "Residential, Commercial, Industrial", "materialen": "Plastic, Paper, Glass, Metal", "volume": "", "lat": 51.2070749, "lon": 0.7210362}, {"naam": "Loop Management Services Ltd.", "regio": "Greater London", "land": "United Kingdom", "klanttype": "Commercial, Industrial", "materialen": "Plastic, Paper, Glass, Metal, Organic", "volume": "", "lat": 51.5074456, "lon": -0.1277653}, {"naam": "Lowmac Alloys Limited", "regio": "North Ayrshire", "land": "United Kingdom", "klanttype": "Residential, Commercial", "materialen": "Plastic, Paper, Glass, Metal", "volume": "", "lat": 55.7278508, "lon": -4.7271767}, {"naam": "LSS Waste Management Ltd", "regio": "West Yorkshire", "land": "United Kingdom", "klanttype": "Commercial", "materialen": "Plastic, Paper, Metal", "volume": "300,000", "lat": 53.7414271, "lon": -1.7202004}, {"naam": "Ludlow Skip Hire Ltd.", "regio": "Shropshire", "land": "United Kingdom", "klanttype": "", "materialen": "Plastic, Paper, Metal, Organic", "volume": "", "lat": 52.6523394, "lon": -2.6435641}, {"naam": "LW Recycling", "regio": "Staffordshire", "land": "United Kingdom", "klanttype": "Residential, Commercial, Industrial", "materialen": "Plastic, Paper, Glass, Metal", "volume": "", "lat": 52.8246942, "lon": -2.0074547}, {"naam": "Lydney Skip Hire", "regio": "Gloucestershire", "land": "United Kingdom", "klanttype": "Residential, Commercial", "materialen": "Plastic, Paper, Glass, Metal", "volume": "", "lat": 51.7643786, "lon": -2.1880662}, {"naam": "M & J Bowers Ltd.", "regio": "Somerset", "land": "United Kingdom", "klanttype": "Residential, Commercial", "materialen": "Paper", "volume": "", "lat": 51.1617509, "lon": -3.0753867}, {"naam": "M J Church Recycling", "regio": "Wiltshire", "land": "United Kingdom", "klanttype": "Residential, Commercial", "materialen": "Plastic, Paper, Metal, Organic", "volume": "", "lat": 51.324162, "lon": -1.9032487}, {"naam": "M W White Ltd", "regio": "Norfolk", "land": "United Kingdom", "klanttype": "Commercial, Industrial", "materialen": "Plastic, Paper, Glass, Metal, Organic", "volume": "", "lat": 52.666667, "lon": 1.0}, {"naam": "M.A.W. Ltd", "regio": "Merseyside", "land": "United Kingdom", "klanttype": "Residential, Commercial", "materialen": "Paper", "volume": "", "lat": 53.4953602, "lon": -2.973938}, {"naam": "M&M Skip Hire Ltd.", "regio": "Oxfordshire", "land": "United Kingdom", "klanttype": "Residential, Commercial, Industrial", "materialen": "Plastic, Paper, Glass, Metal, Organic", "volume": "", "lat": 51.833333, "lon": -1.25}, {"naam": "MAC Skip Hire Ltd.", "regio": "Leicestershire", "land": "United Kingdom", "klanttype": "Residential, Commercial", "materialen": "Plastic, Paper, Glass, Metal, Organic", "volume": "", "lat": 52.666667, "lon": -1.0}, {"naam": "Magfern Recycling (2018) Ltd", "regio": "Derby", "land": "United Kingdom", "klanttype": "Residential, Commercial, Industrial", "materialen": "Plastic, Paper, Metal", "volume": "", "lat": 52.9142235, "lon": -1.4719885}, {"naam": "Maguire Skips Ltd.", "regio": "Greater London", "land": "United Kingdom", "klanttype": "Residential, Commercial", "materialen": "Plastic, Paper, Glass, Metal, Organic", "volume": "", "lat": 51.5074456, "lon": -0.1277653}, {"naam": "Malary Ltd.", "regio": "Cambridgeshire", "land": "United Kingdom", "klanttype": "", "materialen": "Plastic, Paper, Glass, Metal", "volume": "", "lat": 52.3729017, "lon": -0.044936}, {"naam": "Manchester Paper Plastic Ltd.", "regio": "Greater Manchester", "land": "United Kingdom", "klanttype": "Commercial, Industrial", "materialen": "Plastic, Paper", "volume": "", "lat": 53.5065249, "lon": -2.3374401}, {"naam": "Manns Waste Management Ltd", "regio": "Greater London", "land": "United Kingdom", "klanttype": "Residential, Commercial", "materialen": "Plastic, Paper, Glass, Metal, Organic", "volume": "70,028", "lat": 51.5074456, "lon": -0.1277653}, {"naam": "Max Recycle", "regio": "Tyne and Wear", "land": "United Kingdom", "klanttype": "Residential, Commercial, Industrial", "materialen": "Plastic, Paper, Metal", "volume": "", "lat": 54.9391774, "lon": -1.5948712}, {"naam": "McAtee Recycling Ltd.", "regio": "Armagh", "land": "United Kingdom", "klanttype": "Commercial", "materialen": "Plastic, Paper, Metal", "volume": "", "lat": 54.3161086, "lon": -6.7189182}, {"naam": "McAteer Recycling", "regio": "Down", "land": "United Kingdom", "klanttype": "Commercial, Industrial", "materialen": "Plastic, Paper, Glass", "volume": "", "lat": 54.3518644, "lon": -5.9616165}, {"naam": "McCarthy Marland Ltd", "regio": "Bristol", "land": "United Kingdom", "klanttype": "Residential, Commercial, Industrial", "materialen": "Plastic, Paper, Glass, Metal, Organic", "volume": "", "lat": 51.4430162, "lon": -2.581661}, {"naam": "McQuillan Environmental", "regio": "Lisburn", "land": "United Kingdom", "klanttype": "Commercial, Industrial", "materialen": "Plastic, Paper, Glass, Organic", "volume": "", "lat": 54.5112856, "lon": -6.046717}, {"naam": "MD Recycling Ltd", "regio": "Ceredigion", "land": "United Kingdom", "klanttype": "Residential, Commercial", "materialen": "Plastic, Paper", "volume": "", "lat": 52.2945764, "lon": -3.952781}, {"naam": "MDL Recycling Ltd", "regio": "Medway", "land": "United Kingdom", "klanttype": "", "materialen": "Plastic, Paper", "volume": "", "lat": 51.4157386, "lon": 0.5687309}, {"naam": "Mega Skips Wales", "regio": "Rhondda Cynon Taff", "land": "United Kingdom", "klanttype": "Residential, Commercial", "materialen": "Plastic, Paper, Glass, Metal", "volume": "", "lat": 51.6651636, "lon": -3.4577558}, {"naam": "Mercian Skip Hire Midlands Ltd.", "regio": "West Midlands", "land": "United Kingdom", "klanttype": "Residential, Commercial, Industrial", "materialen": "Plastic, Paper, Glass, Metal", "volume": "", "lat": 52.505432, "lon": -1.9646782}, {"naam": "MHH Contracting", "regio": "South Yorkshire", "land": "United Kingdom", "klanttype": "Residential, Commercial, Industrial", "materialen": "Plastic, Paper, Glass, Metal", "volume": "", "lat": 53.4815334, "lon": -1.3810422}, {"naam": "Mick George Group Limited", "regio": "Cambridgeshire", "land": "United Kingdom", "klanttype": "Commercial, Industrial", "materialen": "Plastic, Paper, Glass, Metal, Organic", "volume": "", "lat": 52.3729017, "lon": -0.044936}, {"naam": "Mid UK Recycling Ltd.", "regio": "Lincolnshire", "land": "United Kingdom", "klanttype": "Commercial, Industrial", "materialen": "Plastic, Paper, Glass, Metal", "volume": "300,000", "lat": 53.1823034, "lon": -0.2031209}, {"naam": "Midland Plastic Recycling", "regio": "Worcestershire", "land": "United Kingdom", "klanttype": "Commercial, Industrial", "materialen": "Plastic, Paper", "volume": "", "lat": 52.2109495, "lon": -2.1569555}, {"naam": "Mildenhall Skip Hire", "regio": "Suffolk", "land": "United Kingdom", "klanttype": "Residential, Commercial", "materialen": "Plastic, Paper, Glass, Metal", "volume": "", "lat": 52.2410014, "lon": 1.0465716}, {"naam": "Monoworld Recycling Ltd.", "regio": "Northamptonshire", "land": "United Kingdom", "klanttype": "Residential, Commercial, Industrial", "materialen": "Paper, Glass, Metal", "volume": "", "lat": 52.3106138, "lon": -0.865913}, {"naam": "Monster Skips Ltd.", "regio": "West Midlands", "land": "United Kingdom", "klanttype": "Residential, Commercial", "materialen": "Plastic, Paper, Metal, Organic", "volume": "", "lat": 52.505432, "lon": -1.9646782}, {"naam": "Moores Metals Ltd.", "regio": "Stoke-on-Trent", "land": "United Kingdom", "klanttype": "", "materialen": "Plastic, Paper, Metal", "volume": "", "lat": 53.0162014, "lon": -2.1812607}, {"naam": "Morley Skips Limited", "regio": "Essex", "land": "United Kingdom", "klanttype": "Residential, Commercial", "materialen": "Plastic, Paper, Glass, Metal, Organic", "volume": "", "lat": 51.7704679, "lon": 0.4646698}, {"naam": "Mr Rubble Skip Hire Ltd", "regio": "South Yorkshire", "land": "United Kingdom", "klanttype": "Residential, Commercial", "materialen": "Plastic, Paper, Glass, Metal, Organic", "volume": "", "lat": 53.4815334, "lon": -1.3810422}, {"naam": "Mr. Skippy I.W Ltd", "regio": "Isle of Wight", "land": "United Kingdom", "klanttype": "", "materialen": "Plastic, Paper, Glass, Metal", "volume": "", "lat": 50.6710482, "lon": -1.3327111}, {"naam": "MSK Waste Management & Recycling", "regio": "Greater London", "land": "United Kingdom", "klanttype": "", "materialen": "Plastic, Paper, Glass, Metal", "volume": "60,000", "lat": 51.5074456, "lon": -0.1277653}, {"naam": "Myers Skip Hire", "regio": "West Yorkshire", "land": "United Kingdom", "klanttype": "", "materialen": "Paper, Metal", "volume": "", "lat": 53.7414271, "lon": -1.7202004}, {"naam": "MYGroup (GB) Limited", "regio": "North Yorkshire", "land": "United Kingdom", "klanttype": "Commercial, Industrial", "materialen": "Plastic, Paper, Glass, Metal", "volume": "", "lat": 54.1345328, "lon": -1.4986285}, {"naam": "National Paper Recycling Ltd", "regio": "Northamptonshire", "land": "United Kingdom", "klanttype": "Commercial, Industrial", "materialen": "Paper", "volume": "48,000", "lat": 52.3106138, "lon": -0.865913}, {"naam": "Nelson Plant Hire Ltd", "regio": "Hampshire", "land": "United Kingdom", "klanttype": "Residential, Commercial, Industrial", "materialen": "Plastic, Paper", "volume": "", "lat": 51.0449814, "lon": -1.2433102}, {"naam": "Nelson Recycling Ltd", "regio": "Hampshire", "land": "United Kingdom", "klanttype": "Residential, Commercial", "materialen": "Plastic, Paper", "volume": "", "lat": 51.0449814, "lon": -1.2433102}, {"naam": "New Leaf Recycling Ltd", "regio": "Greater London", "land": "United Kingdom", "klanttype": "Commercial", "materialen": "Paper", "volume": "", "lat": 51.5074456, "lon": -0.1277653}, {"naam": "Newbery Recycling Ltd", "regio": "Devon", "land": "United Kingdom", "klanttype": "Residential, Commercial", "materialen": "Plastic, Paper, Metal", "volume": "", "lat": 50.7241405, "lon": -3.6607788}, {"naam": "Newtown Skip Hire Limited", "regio": "North Lanarkshire", "land": "United Kingdom", "klanttype": "Residential, Commercial, Industrial", "materialen": "Plastic, Paper, Glass, Metal, Organic", "volume": "", "lat": 55.8830507, "lon": -3.9461551}, {"naam": "NJB Recycling", "regio": "Greater London", "land": "United Kingdom", "klanttype": "Residential, Commercial, Industrial", "materialen": "Paper, Metal", "volume": "", "lat": 51.5074456, "lon": -0.1277653}, {"naam": "Nolan Recycling Ltd.", "regio": "Bridgend", "land": "United Kingdom", "klanttype": "Residential, Commercial", "materialen": "Plastic, Paper, Glass", "volume": "", "lat": 51.5049859, "lon": -3.5756674}, {"naam": "Norman Wenn Skip Hire Ltd.", "regio": "Norfolk", "land": "United Kingdom", "klanttype": "Residential, Commercial", "materialen": "Plastic, Paper, Metal, Organic", "volume": "", "lat": 52.666667, "lon": 1.0}, {"naam": "Norpol Recycling Ltd.", "regio": "Lancashire", "land": "United Kingdom", "klanttype": "", "materialen": "Plastic, Paper, Glass, Metal", "volume": "", "lat": 53.8611712, "lon": -2.5650945}, {"naam": "North West Recycling Ltd", "regio": "Cumberland", "land": "United Kingdom", "klanttype": "Residential, Commercial", "materialen": "Plastic, Paper, Metal, Organic", "volume": "150,000", "lat": 54.6784251, "lon": -3.304002}, {"naam": "Northern Recycling Solutions", "regio": "Highland", "land": "United Kingdom", "klanttype": "Commercial, Industrial", "materialen": "Plastic, Paper, Glass, Metal, Organic", "volume": "", "lat": 57.5066357, "lon": -5.0038367}, {"naam": "O'Brien Recycling", "regio": "Highland", "land": "United Kingdom", "klanttype": "Residential, Commercial", "materialen": "Plastic, Paper, Metal", "volume": "", "lat": 57.5066357, "lon": -5.0038367}, {"naam": "OB Skips & Recycling Ltd.", "regio": "Merseyside", "land": "United Kingdom", "klanttype": "Residential, Commercial, Industrial", "materialen": "Plastic, Paper, Glass, Metal", "volume": "", "lat": 53.4953602, "lon": -2.973938}, {"naam": "Ofield’s Skip Hire Ltd.", "regio": "Greater Manchester", "land": "United Kingdom", "klanttype": "Residential, Commercial", "materialen": "Paper, Metal", "volume": "", "lat": 53.5065249, "lon": -2.3374401}, {"naam": "One Waste Ltd.", "regio": "Greater London", "land": "United Kingdom", "klanttype": "", "materialen": "Plastic, Paper, Glass, Metal", "volume": "", "lat": 51.5074456, "lon": -0.1277653}, {"naam": "Oswestry Waste Paper", "regio": "Shropshire", "land": "United Kingdom", "klanttype": "", "materialen": "Plastic, Paper", "volume": "", "lat": 52.6523394, "lon": -2.6435641}, {"naam": "P.B. Donoghue Waste Management", "regio": "Hertfordshire", "land": "United Kingdom", "klanttype": "", "materialen": "Plastic, Paper, Glass, Metal, Organic", "volume": "", "lat": 51.8400523, "lon": -0.0978552}, {"naam": "Packaging Reuse & Disposal Services Ltd.", "regio": "Greater Manchester", "land": "United Kingdom", "klanttype": "", "materialen": "Plastic, Paper", "volume": "", "lat": 53.5065249, "lon": -2.3374401}, {"naam": "Paper Mountain Ltd.", "regio": "Hampshire", "land": "United Kingdom", "klanttype": "Commercial", "materialen": "Plastic, Paper", "volume": "", "lat": 51.0449814, "lon": -1.2433102}, {"naam": "Paper Shredding Services", "regio": "City of Glasgow", "land": "United Kingdom", "klanttype": "Residential, Commercial, Industrial", "materialen": "Paper", "volume": "", "lat": 55.8555116, "lon": -4.2262307}, {"naam": "Paperchain Co-operative", "regio": "Devon", "land": "United Kingdom", "klanttype": "Residential, Commercial, Industrial", "materialen": "Plastic, Paper, Metal", "volume": "", "lat": 50.7241405, "lon": -3.6607788}, {"naam": "Papyrus RRR Ltd", "regio": "Kent", "land": "United Kingdom", "klanttype": "Commercial, Industrial", "materialen": "Paper", "volume": "", "lat": 51.2070749, "lon": 0.7210362}, {"naam": "Parry & Evans Ltd.", "regio": "Powys", "land": "United Kingdom", "klanttype": "Commercial", "materialen": "Plastic, Paper, Glass, Metal", "volume": "1,800", "lat": 52.32715, "lon": -3.3553352}, {"naam": "Pat Munro (Alness) Ltd", "regio": "Highland", "land": "United Kingdom", "klanttype": "Commercial, Industrial", "materialen": "Plastic, Paper, Metal", "volume": "", "lat": 57.5066357, "lon": -5.0038367}, {"naam": "Patersons Skip Hire Limited", "regio": "Dundee City", "land": "United Kingdom", "klanttype": "Residential, Commercial", "materialen": "Plastic, Paper, Metal, Organic", "volume": "", "lat": 56.473846, "lon": -2.966419}, {"naam": "Pearce Group", "regio": "Hertfordshire", "land": "United Kingdom", "klanttype": "Commercial", "materialen": "Plastic, Paper, Metal", "volume": "", "lat": 51.8400523, "lon": -0.0978552}, {"naam": "Peninsula Waste Savers Ltd.", "regio": "Devon", "land": "United Kingdom", "klanttype": "Residential, Commercial, Industrial", "materialen": "Plastic, Paper, Metal", "volume": "", "lat": 50.7241405, "lon": -3.6607788}, {"naam": "Perrys Recycling Ltd.", "regio": "Somerset", "land": "United Kingdom", "klanttype": "Commercial, Industrial", "materialen": "Plastic, Paper, Glass, Metal", "volume": "35,000", "lat": 51.1617509, "lon": -3.0753867}, {"naam": "Pete Bott Skips Ltd.", "regio": "Pembrokeshire", "land": "United Kingdom", "klanttype": "", "materialen": "Paper, Metal, Organic", "volume": "17,500", "lat": 51.8339209, "lon": -4.916667}, {"naam": "Peter Allison Agri Services Ltd.", "regio": "Angus", "land": "United Kingdom", "klanttype": "Commercial", "materialen": "Plastic, Paper", "volume": "", "lat": 56.666667, "lon": -2.916667}, {"naam": "Peter Norris Haulage Ltd", "regio": "Greater London", "land": "United Kingdom", "klanttype": "Residential, Commercial, Industrial", "materialen": "Paper, Glass, Metal", "volume": "", "lat": 51.5074456, "lon": -0.1277653}, {"naam": "PG Skips Ltd", "regio": "Shropshire", "land": "United Kingdom", "klanttype": "Residential, Commercial", "materialen": "Plastic, Paper, Glass, Metal, Organic", "volume": "", "lat": 52.6523394, "lon": -2.6435641}, {"naam": "Pillory Down Skips Ltd", "regio": "Greater London", "land": "United Kingdom", "klanttype": "Residential, Commercial, Industrial", "materialen": "Plastic, Paper, Metal, Organic", "volume": "", "lat": 51.5074456, "lon": -0.1277653}, {"naam": "Pinden Ltd", "regio": "Kent", "land": "United Kingdom", "klanttype": "Residential, Commercial, Industrial", "materialen": "Plastic, Paper, Glass, Metal", "volume": "", "lat": 51.2070749, "lon": 0.7210362}, {"naam": "Pink Skips Manchester Ltd.", "regio": "Greater Manchester", "land": "United Kingdom", "klanttype": "Residential, Commercial", "materialen": "Plastic, Paper, Metal", "volume": "", "lat": 53.5065249, "lon": -2.3374401}, {"naam": "PJ Products Ltd", "regio": "East Sussex", "land": "United Kingdom", "klanttype": "Residential, Commercial, Industrial", "materialen": "Plastic, Paper, Glass, Metal, Organic", "volume": "", "lat": 50.9404266, "lon": 0.3699978}, {"naam": "Plumb Polymers Ltd.", "regio": "South Yorkshire", "land": "United Kingdom", "klanttype": "", "materialen": "Paper", "volume": "", "lat": 53.4815334, "lon": -1.3810422}, {"naam": "Potter Group", "regio": "Powys", "land": "United Kingdom", "klanttype": "Residential, Commercial", "materialen": "Plastic, Paper, Glass, Metal, Organic", "volume": "", "lat": 52.32715, "lon": -3.3553352}, {"naam": "Powerday", "regio": "Greater London", "land": "United Kingdom", "klanttype": "Commercial, Industrial", "materialen": "Plastic, Paper, Metal", "volume": "", "lat": 51.5074456, "lon": -0.1277653}, {"naam": "Premier Waste Recycling Ltd", "regio": "Durham County", "land": "United Kingdom", "klanttype": "Residential, Commercial, Industrial", "materialen": "Plastic, Paper, Glass, Metal", "volume": "", "lat": 54.7770139, "lon": -1.5756205}, {"naam": "Premier Waste UK PLC", "regio": "West Midlands", "land": "United Kingdom", "klanttype": "Commercial, Industrial", "materialen": "Paper", "volume": "", "lat": 52.505432, "lon": -1.9646782}, {"naam": "Prince Recycling Ltd.", "regio": "Essex", "land": "United Kingdom", "klanttype": "Residential, Commercial", "materialen": "Plastic, Paper, Metal", "volume": "", "lat": 51.7704679, "lon": 0.4646698}, {"naam": "Printwaste Recycling & Shredding", "regio": "Gloucestershire", "land": "United Kingdom", "klanttype": "Residential, Commercial, Industrial", "materialen": "Plastic, Paper, Glass, Metal", "volume": "", "lat": 51.7643786, "lon": -2.1880662}, {"naam": "PSH Environmental Ltd", "regio": "Norfolk", "land": "United Kingdom", "klanttype": "Residential, Commercial, Industrial", "materialen": "Plastic, Paper, Metal, Organic", "volume": "250,000", "lat": 52.666667, "lon": 1.0}, {"naam": "Pulp Friction Ltd", "regio": "Greater London", "land": "United Kingdom", "klanttype": "Commercial, Industrial", "materialen": "Plastic, Paper, Metal", "volume": "", "lat": 51.5074456, "lon": -0.1277653}, {"naam": "Pulse Environmental Limited", "regio": "Greater London", "land": "United Kingdom", "klanttype": "Commercial", "materialen": "Plastic, Paper, Glass, Metal, Organic", "volume": "75,000", "lat": 51.5074456, "lon": -0.1277653}, {"naam": "Quickskip Hereford Limited", "regio": "Herefordshire", "land": "United Kingdom", "klanttype": "", "materialen": "Plastic, Paper, Metal, Organic", "volume": "", "lat": 52.083333, "lon": -2.75}, {"naam": "R & J Farrow Ltd", "regio": "North Yorkshire", "land": "United Kingdom", "klanttype": "Residential, Commercial, Industrial", "materialen": "Plastic, Paper, Metal, Organic", "volume": "", "lat": 54.1345328, "lon": -1.4986285}, {"naam": "R Bestwick & Sons Limited", "regio": "Staffordshire", "land": "United Kingdom", "klanttype": "Residential, Commercial", "materialen": "Plastic, Paper, Metal", "volume": "", "lat": 52.8246942, "lon": -2.0074547}, {"naam": "Rabbit Waste Management Ltd.", "regio": "West Sussex", "land": "United Kingdom", "klanttype": "Residential, Commercial", "materialen": "Plastic, Paper, Glass, Metal, Organic", "volume": "", "lat": 51.0, "lon": -0.416667}, {"naam": "Radical Waste Group Ltd", "regio": "Suffolk", "land": "United Kingdom", "klanttype": "Residential, Commercial", "materialen": "Paper, Metal", "volume": "", "lat": 52.2410014, "lon": 1.0465716}, {"naam": "Rainbow Waste Management Co. Ltd.", "regio": "Derbyshire", "land": "United Kingdom", "klanttype": "Residential, Commercial", "materialen": "Plastic, Paper, Glass, Metal, Organic", "volume": "", "lat": 53.1185033, "lon": -1.5566179}, {"naam": "Raybell & Sons Ltd.", "regio": "Northamptonshire", "land": "United Kingdom", "klanttype": "Residential, Commercial", "materialen": "Paper, Glass, Metal", "volume": "", "lat": 52.3106138, "lon": -0.865913}, {"naam": "Re-Gen Waste Ltd.", "regio": "Down", "land": "United Kingdom", "klanttype": "", "materialen": "Plastic, Paper, Glass, Metal", "volume": "180,000", "lat": 54.3518644, "lon": -5.9616165}, {"naam": "Reconomy", "regio": "Greater London", "land": "United Kingdom", "klanttype": "", "materialen": "Plastic, Paper, Glass, Metal", "volume": "", "lat": 51.5074456, "lon": -0.1277653}, {"naam": "Recorra Ltd.", "regio": "Greater London", "land": "United Kingdom", "klanttype": "Commercial", "materialen": "Plastic, Paper, Glass, Metal, Organic", "volume": "", "lat": 51.5074456, "lon": -0.1277653}, {"naam": "Recyclapak Ltd", "regio": "West Midlands", "land": "United Kingdom", "klanttype": "Commercial", "materialen": "Plastic, Paper, Metal", "volume": "", "lat": 52.505432, "lon": -1.9646782}, {"naam": "Recycle Fife Ltd", "regio": "Fife", "land": "United Kingdom", "klanttype": "Residential, Commercial", "materialen": "Plastic, Paper, Glass, Metal, Organic", "volume": "", "lat": 56.3333331, "lon": -3.0000001}, {"naam": "Recycle Force Ltd.", "regio": "Northamptonshire", "land": "United Kingdom", "klanttype": "Commercial, Industrial", "materialen": "Plastic, Paper, Glass, Metal", "volume": "", "lat": 52.3106138, "lon": -0.865913}, {"naam": "Recycled Packaging Ltd", "regio": "North Lanarkshire", "land": "United Kingdom", "klanttype": "Commercial, Industrial", "materialen": "Paper", "volume": "", "lat": 55.8830507, "lon": -3.9461551}, {"naam": "Recycling Lives Services", "regio": "Lancashire", "land": "United Kingdom", "klanttype": "Commercial, Industrial", "materialen": "Plastic, Paper, Metal", "volume": "", "lat": 53.8611712, "lon": -2.5650945}, {"naam": "Recycling UK Limited", "regio": "Cheshire West and Chester", "land": "United Kingdom", "klanttype": "", "materialen": "Plastic, Paper", "volume": "", "lat": 53.1637979, "lon": -2.7285361}, {"naam": "RecyCo", "regio": "Fermanagh", "land": "United Kingdom", "klanttype": "Residential, Commercial", "materialen": "Plastic, Paper, Glass, Metal, Organic", "volume": "100,000", "lat": 54.3243995, "lon": -7.7223985}, {"naam": "Red Skips 2U Ltd.", "regio": "Cambridgeshire", "land": "United Kingdom", "klanttype": "Residential, Commercial, Industrial", "materialen": "Plastic, Paper, Glass, Metal", "volume": "", "lat": 52.3729017, "lon": -0.044936}, {"naam": "Redgate Holdings Ltd", "regio": "Greater Manchester", "land": "United Kingdom", "klanttype": "", "materialen": "Plastic, Paper, Metal", "volume": "", "lat": 53.5065249, "lon": -2.3374401}, {"naam": "Regenthill Limited", "regio": "Hampshire", "land": "United Kingdom", "klanttype": "Residential, Commercial", "materialen": "Plastic, Paper", "volume": "", "lat": 51.0449814, "lon": -1.2433102}, {"naam": "Remondis Ltd", "regio": "Northumberland", "land": "United Kingdom", "klanttype": "Residential, Commercial", "materialen": "Plastic, Paper, Glass, Metal, Organic", "volume": "", "lat": 55.25, "lon": -2.000559}, {"naam": "Rent-a-Skip Manchester", "regio": "Greater Manchester", "land": "United Kingdom", "klanttype": "Residential, Commercial", "materialen": "Plastic, Paper, Metal, Organic", "volume": "", "lat": 53.5065249, "lon": -2.3374401}, {"naam": "Rishton Waste Paper Ltd", "regio": "Lancashire", "land": "United Kingdom", "klanttype": "Commercial, Industrial", "materialen": "Plastic, Paper, Metal", "volume": "", "lat": 53.8611712, "lon": -2.5650945}, {"naam": "Riverdale Paper plc", "regio": "Tyne and Wear", "land": "United Kingdom", "klanttype": "Commercial, Industrial", "materialen": "Plastic, Paper", "volume": "", "lat": 54.9391774, "lon": -1.5948712}, {"naam": "RiverRidge Recycling", "regio": "Causeway Coast and Glens", "land": "United Kingdom", "klanttype": "Commercial, Industrial", "materialen": "Plastic, Paper, Metal", "volume": "300,000", "lat": 55.2232015, "lon": -6.4979388}, {"naam": "Ron Hull Group", "regio": "South Yorkshire", "land": "United Kingdom", "klanttype": "Residential, Commercial, Industrial", "materialen": "Plastic, Paper, Glass, Metal", "volume": "", "lat": 53.4815334, "lon": -1.3810422}, {"naam": "RTS Waste Management Limited", "regio": "Kent", "land": "United Kingdom", "klanttype": "Residential, Commercial", "materialen": "Plastic, Paper, Glass, Metal, Organic", "volume": "75,000", "lat": 51.2070749, "lon": 0.7210362}, {"naam": "Russell Richardson & Sons Ltd", "regio": "South Yorkshire", "land": "United Kingdom", "klanttype": "Commercial, Industrial", "materialen": "Paper", "volume": "", "lat": 53.4815334, "lon": -1.3810422}, {"naam": "RV Maidment Ltd.", "regio": "Wiltshire", "land": "United Kingdom", "klanttype": "Residential, Commercial", "materialen": "Plastic, Paper", "volume": "", "lat": 51.324162, "lon": -1.9032487}, {"naam": "Sackers Ltd.", "regio": "Suffolk", "land": "United Kingdom", "klanttype": "Residential, Commercial, Industrial", "materialen": "Plastic, Paper, Metal", "volume": "", "lat": 52.2410014, "lon": 1.0465716}, {"naam": "SB Skip Hire", "regio": "Essex", "land": "United Kingdom", "klanttype": "Residential, Commercial", "materialen": "Plastic, Paper, Metal", "volume": "", "lat": 51.7704679, "lon": 0.4646698}, {"naam": "SBT Skip Hire", "regio": "West Yorkshire", "land": "United Kingdom", "klanttype": "Residential, Commercial, Industrial", "materialen": "Paper, Organic", "volume": "", "lat": 53.7414271, "lon": -1.7202004}, {"naam": "Scott Bros Ltd", "regio": "Stockton-on-Tees", "land": "United Kingdom", "klanttype": "", "materialen": "Plastic, Paper, Metal", "volume": "", "lat": 54.554578, "lon": -1.3584913}, {"naam": "Scotwaste Recycling Ltd", "regio": "West Lothian", "land": "United Kingdom", "klanttype": "Residential, Commercial, Industrial", "materialen": "Plastic, Paper, Glass, Metal, Organic", "volume": "", "lat": 55.916667, "lon": -3.5}, {"naam": "SD Waste Paper Recycling Centre", "regio": "Greater Manchester", "land": "United Kingdom", "klanttype": "", "materialen": "Plastic, Paper", "volume": "", "lat": 53.5065249, "lon": -2.3374401}, {"naam": "Seahouses Skip Hire", "regio": "Northumberland", "land": "United Kingdom", "klanttype": "Residential, Commercial", "materialen": "Plastic, Paper, Metal, Organic", "volume": "", "lat": 55.25, "lon": -2.000559}, {"naam": "Seal Metal Recycling", "regio": "Lancashire", "land": "United Kingdom", "klanttype": "Commercial, Industrial", "materialen": "Plastic, Paper, Metal", "volume": "", "lat": 53.8611712, "lon": -2.5650945}, {"naam": "Secureshred Scotland Ltd", "regio": "Fife", "land": "United Kingdom", "klanttype": "", "materialen": "Paper", "volume": "", "lat": 56.3333331, "lon": -3.0000001}, {"naam": "Select Environmental Services Limited", "regio": "Berkshire", "land": "United Kingdom", "klanttype": "Commercial, Industrial", "materialen": "Plastic, Paper, Glass, Metal", "volume": "", "lat": 51.4534889, "lon": -1.031873}, {"naam": "Senior Waste Removals", "regio": "Greater Manchester", "land": "United Kingdom", "klanttype": "Residential, Commercial", "materialen": "Plastic, Paper, Glass, Metal", "volume": "", "lat": 53.5065249, "lon": -2.3374401}, {"naam": "Severn Waste Services", "regio": "Worcestershire", "land": "United Kingdom", "klanttype": "Residential", "materialen": "Plastic, Paper, Glass, Metal", "volume": "", "lat": 52.2109495, "lon": -2.1569555}, {"naam": "Sharp Brothers (Skips) Ltd", "regio": "Greater London", "land": "United Kingdom", "klanttype": "Residential, Commercial, Industrial", "materialen": "Plastic, Paper, Metal", "volume": "", "lat": 51.5074456, "lon": -0.1277653}, {"naam": "Shaw Skips", "regio": "Greater Manchester", "land": "United Kingdom", "klanttype": "Residential, Commercial, Industrial", "materialen": "Plastic, Paper, Metal, Organic", "volume": "", "lat": 53.5065249, "lon": -2.3374401}, {"naam": "Sheridan Skips Ltd.", "regio": "Greater Manchester", "land": "United Kingdom", "klanttype": "Residential, Commercial, Industrial", "materialen": "Plastic, Paper, Metal, Organic", "volume": "", "lat": 53.5065249, "lon": -2.3374401}, {"naam": "Shirley's Recycling Ltd", "regio": "Blackburn with Darwen", "land": "United Kingdom", "klanttype": "", "materialen": "Plastic, Paper", "volume": "36,000", "lat": 53.699177, "lon": -2.4709001}, {"naam": "Shorts Group Ltd", "regio": "Berkshire", "land": "United Kingdom", "klanttype": "Residential, Commercial", "materialen": "Plastic, Paper, Glass, Metal", "volume": "", "lat": 51.4534889, "lon": -1.031873}, {"naam": "Shred Station Ltd.", "regio": "Norfolk", "land": "United Kingdom", "klanttype": "Residential, Commercial", "materialen": "Paper", "volume": "", "lat": 52.666667, "lon": 1.0}, {"naam": "Shred-on-Site Ltd", "regio": "Surrey", "land": "United Kingdom", "klanttype": "Commercial, Industrial", "materialen": "Paper", "volume": "", "lat": 51.2715316, "lon": -0.3414524}, {"naam": "Shredall SDS Group", "regio": "Nottinghamshire", "land": "United Kingdom", "klanttype": "Commercial", "materialen": "Paper", "volume": "", "lat": 53.1459288, "lon": -1.0214971}, {"naam": "Shredded Neat (UK) LLP", "regio": "East Sussex", "land": "United Kingdom", "klanttype": "Commercial", "materialen": "Paper", "volume": "", "lat": 50.9404266, "lon": 0.3699978}, {"naam": "Sid Dennis & Sons Ltd", "regio": "Lincolnshire", "land": "United Kingdom", "klanttype": "Commercial, Industrial", "materialen": "Plastic, Paper, Metal", "volume": "", "lat": 53.1823034, "lon": -0.2031209}, {"naam": "Silver Skips Lincolnshire Ltd.", "regio": "Lincolnshire", "land": "United Kingdom", "klanttype": "Residential, Commercial", "materialen": "Plastic, Paper, Metal, Organic", "volume": "", "lat": 53.1823034, "lon": -0.2031209}, {"naam": "Simply Shredding", "regio": "Kingston upon Hull", "land": "United Kingdom", "klanttype": "", "materialen": "Paper", "volume": "", "lat": 53.7623863, "lon": -0.3301214}, {"naam": "Simply Waste Solutions", "regio": "Buckinghamshire", "land": "United Kingdom", "klanttype": "Residential, Commercial", "materialen": "Plastic, Paper", "volume": "", "lat": 51.840894, "lon": -0.8998074}, {"naam": "Sinkfall Recycling", "regio": "Cumbria", "land": "United Kingdom", "klanttype": "Residential, Commercial, Industrial", "materialen": "Plastic, Paper, Glass, Metal", "volume": "", "lat": 54.6143136, "lon": -2.9420899}, {"naam": "Skelton Ltd", "regio": "West Yorkshire", "land": "United Kingdom", "klanttype": "Residential, Commercial", "materialen": "Plastic, Paper, Glass, Metal", "volume": "", "lat": 53.7414271, "lon": -1.7202004}, {"naam": "Skip Hire Epping", "regio": "Essex", "land": "United Kingdom", "klanttype": "Residential, Commercial, Industrial", "materialen": "Plastic, Paper, Metal, Organic", "volume": "", "lat": 51.7704679, "lon": 0.4646698}, {"naam": "Skip It Recycling", "regio": "Wiltshire", "land": "United Kingdom", "klanttype": "Residential, Commercial, Industrial", "materialen": "Plastic, Paper, Metal, Organic", "volume": "", "lat": 51.324162, "lon": -1.9032487}, {"naam": "Skip Services Enniskillen Ltd", "regio": "Fermanagh", "land": "United Kingdom", "klanttype": "Residential, Commercial, Industrial", "materialen": "Plastic, Paper, Glass, Metal", "volume": "", "lat": 54.3243995, "lon": -7.7223985}, {"naam": "Skippy Skip Hire", "regio": "Norfolk", "land": "United Kingdom", "klanttype": "Residential, Commercial, Industrial", "materialen": "Plastic, Paper, Glass, Metal", "volume": "", "lat": 52.666667, "lon": 1.0}, {"naam": "Skippy Waste Services Ltd", "regio": "Stockton-on-Tees", "land": "United Kingdom", "klanttype": "Residential, Commercial", "materialen": "Plastic, Paper", "volume": "", "lat": 54.554578, "lon": -1.3584913}, {"naam": "Skips 4 U", "regio": "Southend-on-Sea", "land": "United Kingdom", "klanttype": "Residential, Commercial", "materialen": "Plastic, Paper, Metal, Organic", "volume": "", "lat": 51.5388241, "lon": 0.7128137}, {"naam": "Skips R Us Ltd.", "regio": "Down", "land": "United Kingdom", "klanttype": "Residential, Commercial, Industrial", "materialen": "Plastic, Paper, Metal", "volume": "", "lat": 54.3518644, "lon": -5.9616165}, {"naam": "SL Recycling Ltd.", "regio": "Caerphilly", "land": "United Kingdom", "klanttype": "Residential, Commercial, Industrial", "materialen": "Plastic, Paper, Metal, Organic", "volume": "", "lat": 51.6723809, "lon": -3.1783938}, {"naam": "Smith Recycling (MK) Ltd", "regio": "Buckinghamshire", "land": "United Kingdom", "klanttype": "Commercial, Industrial", "materialen": "Plastic, Paper, Metal, Organic", "volume": "", "lat": 51.840894, "lon": -0.8998074}, {"naam": "Smiths Gloucester Ltd.", "regio": "Gloucestershire", "land": "United Kingdom", "klanttype": "Residential, Commercial, Industrial", "materialen": "Plastic, Paper, Glass, Metal, Organic", "volume": "", "lat": 51.7643786, "lon": -2.1880662}, {"naam": "SO Recycle Ltd.", "regio": "Hampshire", "land": "United Kingdom", "klanttype": "Commercial, Industrial", "materialen": "Plastic, Paper", "volume": "", "lat": 51.0449814, "lon": -1.2433102}, {"naam": "Space Rubbish Ltd.", "regio": "Greater London", "land": "United Kingdom", "klanttype": "Residential, Commercial", "materialen": "Plastic, Paper, Metal", "volume": "", "lat": 51.5074456, "lon": -0.1277653}, {"naam": "Speedy Skip Hire Ltd.", "regio": "Highland", "land": "United Kingdom", "klanttype": "", "materialen": "Plastic, Paper, Glass, Metal", "volume": "", "lat": 57.5066357, "lon": -5.0038367}, {"naam": "Stevenage Skip Hire Limited", "regio": "Hertfordshire", "land": "United Kingdom", "klanttype": "Commercial, Industrial", "materialen": "Plastic, Paper, Metal", "volume": "", "lat": 51.8400523, "lon": -0.0978552}, {"naam": "Stevens Recycling", "regio": "Gloucestershire", "land": "United Kingdom", "klanttype": "Residential, Commercial", "materialen": "Plastic, Paper, Metal", "volume": "", "lat": 51.7643786, "lon": -2.1880662}, {"naam": "Stor-a-File Limited", "regio": "Leicestershire", "land": "United Kingdom", "klanttype": "Commercial", "materialen": "Paper", "volume": "", "lat": 52.666667, "lon": -1.0}, {"naam": "Stornoway Skip Hire", "regio": "Na h-Eileanan Siar", "land": "United Kingdom", "klanttype": "Residential, Commercial", "materialen": "Plastic, Paper, Glass, Metal", "volume": "", "lat": 57.666667, "lon": -7.166667}, {"naam": "SUEZ recycling and recovery UK", "regio": "Berkshire", "land": "United Kingdom", "klanttype": "Residential, Commercial, Industrial", "materialen": "Plastic, Paper, Glass, Metal", "volume": "", "lat": 51.4534889, "lon": -1.031873}, {"naam": "SunSkips Ltd.", "regio": "Suffolk", "land": "United Kingdom", "klanttype": "Residential, Commercial", "materialen": "Plastic, Paper, Glass, Metal, Organic", "volume": "", "lat": 52.2410014, "lon": 1.0465716}, {"naam": "Sussex Skips", "regio": "East Sussex", "land": "United Kingdom", "klanttype": "", "materialen": "Plastic, Paper, Metal, Organic", "volume": "", "lat": 50.9404266, "lon": 0.3699978}, {"naam": "SWM & Waste Recycling Limited", "regio": "Devon", "land": "United Kingdom", "klanttype": "Residential, Commercial, Industrial", "materialen": "Plastic, Paper, Metal, Organic", "volume": "", "lat": 50.7241405, "lon": -3.6607788}, {"naam": "T J Skips Ltd.", "regio": "Kent", "land": "United Kingdom", "klanttype": "", "materialen": "Paper", "volume": "", "lat": 51.2070749, "lon": 0.7210362}, {"naam": "T.P. Skip Hire Ltd.", "regio": "Middlesbrough", "land": "United Kingdom", "klanttype": "Residential, Commercial", "materialen": "Plastic, Paper", "volume": "", "lat": 54.5760419, "lon": -1.2344047}, {"naam": "T&B Containers Ltd.", "regio": "Lincolnshire", "land": "United Kingdom", "klanttype": "Commercial, Industrial", "materialen": "Plastic, Paper", "volume": "", "lat": 53.1823034, "lon": -0.2031209}, {"naam": "Taurus Waste Recycling Ltd", "regio": "Hampshire", "land": "United Kingdom", "klanttype": "Residential, Commercial", "materialen": "Plastic, Paper", "volume": "", "lat": 51.0449814, "lon": -1.2433102}, {"naam": "Taylors Skip Hire Ltd.", "regio": "Surrey", "land": "United Kingdom", "klanttype": "Residential, Commercial, Industrial", "materialen": "Plastic, Paper, Metal", "volume": "", "lat": 51.2715316, "lon": -0.3414524}, {"naam": "TBD Morris Recycling and Waste Management", "regio": "Leicestershire", "land": "United Kingdom", "klanttype": "Residential, Commercial", "materialen": "Plastic, Paper, Glass, Metal, Organic", "volume": "", "lat": 52.666667, "lon": -1.0}, {"naam": "TBS Recycling & Skip Hire", "regio": "Pembrokeshire", "land": "United Kingdom", "klanttype": "Residential, Commercial", "materialen": "Plastic, Paper, Metal, Organic", "volume": "", "lat": 51.8339209, "lon": -4.916667}, {"naam": "TC Skip Hire Limited", "regio": "Stoke-on-Trent", "land": "United Kingdom", "klanttype": "Residential, Commercial, Industrial", "materialen": "Plastic, Paper, Glass, Metal, Organic", "volume": "", "lat": 53.0162014, "lon": -2.1812607}, {"naam": "TG Enviro service", "regio": "Shropshire", "land": "United Kingdom", "klanttype": "Residential, Commercial", "materialen": "Paper, Metal", "volume": "", "lat": 52.6523394, "lon": -2.6435641}, {"naam": "Thalia Waste Management", "regio": "Greater London", "land": "United Kingdom", "klanttype": "Residential, Commercial, Industrial", "materialen": "Plastic, Paper, Glass, Metal", "volume": "", "lat": 51.5074456, "lon": -0.1277653}, {"naam": "Thamesdown Recycling Ltd.", "regio": "Wiltshire", "land": "United Kingdom", "klanttype": "Residential, Commercial, Industrial", "materialen": "Plastic, Paper, Glass, Metal", "volume": "", "lat": 51.324162, "lon": -1.9032487}, {"naam": "The Coventry & Solihull Waste Disposal Company Limited", "regio": "West Midlands", "land": "United Kingdom", "klanttype": "Residential, Commercial", "materialen": "Plastic, Paper, Glass, Metal, Organic", "volume": "", "lat": 52.505432, "lon": -1.9646782}, {"naam": "The NWH Group", "regio": "Midlothian", "land": "United Kingdom", "klanttype": "Residential, Commercial, Industrial", "materialen": "Plastic, Paper, Glass, Metal, Organic", "volume": "", "lat": 55.833333, "lon": -3.083333}, {"naam": "Thompson Fuels & Skip Hire Limited", "regio": "South Yorkshire", "land": "United Kingdom", "klanttype": "Residential, Commercial", "materialen": "Plastic, Paper, Metal", "volume": "", "lat": 53.4815334, "lon": -1.3810422}, {"naam": "Thorncliffe Building Supplies Ltd.", "regio": "Denbighshire", "land": "United Kingdom", "klanttype": "Residential, Commercial", "materialen": "Plastic, Paper, Glass, Metal, Organic", "volume": "", "lat": 53.1097895, "lon": -3.3671284}, {"naam": "Throw & Tow Eco Skips Ltd.", "regio": "Devon", "land": "United Kingdom", "klanttype": "Residential, Commercial", "materialen": "Plastic, Paper, Glass, Metal, Organic", "volume": "", "lat": 50.7241405, "lon": -3.6607788}, {"naam": "TJ Waste & Recycling Ltd.", "regio": "Hampshire", "land": "United Kingdom", "klanttype": "Residential, Commercial, Industrial", "materialen": "Plastic, Paper, Glass, Metal, Organic", "volume": "", "lat": 51.0449814, "lon": -1.2433102}, {"naam": "TKL Skip Hire Ltd.", "regio": "South Yorkshire", "land": "United Kingdom", "klanttype": "Residential, Commercial", "materialen": "Plastic, Paper, Glass, Metal, Organic", "volume": "", "lat": 53.4815334, "lon": -1.3810422}, {"naam": "Tom White Waste Limited", "regio": "West Midlands", "land": "United Kingdom", "klanttype": "Residential, Commercial, Industrial", "materialen": "Plastic, Paper, Metal", "volume": "103,000", "lat": 52.505432, "lon": -1.9646782}, {"naam": "Total Recycling Scotland", "regio": "West Lothian", "land": "United Kingdom", "klanttype": "Residential, Commercial", "materialen": "Plastic, Paper, Glass, Metal, Organic", "volume": "", "lat": 55.916667, "lon": -3.5}, {"naam": "Total Waste Management Ltd", "regio": "Essex", "land": "United Kingdom", "klanttype": "Commercial, Industrial", "materialen": "Plastic, Paper, Metal", "volume": "", "lat": 51.7704679, "lon": 0.4646698}, {"naam": "Transwaste Recycling & Aggregates Ltd", "regio": "East Riding of Yorkshire", "land": "United Kingdom", "klanttype": "Residential, Commercial, Industrial", "materialen": "Plastic, Paper, Metal, Organic", "volume": "", "lat": 53.8735965, "lon": -0.5347788}, {"naam": "TW Services Ltd.", "regio": "", "land": "United Kingdom", "klanttype": "Residential, Commercial, Industrial", "materialen": "Plastic, Paper, Glass, Metal, Organic", "volume": "750,000", "lat": 54.7023545, "lon": -3.2765753}, {"naam": "Tynan Skips Ltd.", "regio": "Surrey", "land": "United Kingdom", "klanttype": "Residential, Commercial", "materialen": "Paper, Glass, Metal", "volume": "", "lat": 51.2715316, "lon": -0.3414524}, {"naam": "United Junk Skip Hire Ltd", "regio": "Greater Manchester", "land": "United Kingdom", "klanttype": "Residential, Commercial", "materialen": "Plastic, Paper, Glass, Metal, Organic", "volume": "", "lat": 53.5065249, "lon": -2.3374401}, {"naam": "Urban Skip Hire", "regio": "Greater Manchester", "land": "United Kingdom", "klanttype": "Residential, Commercial, Industrial", "materialen": "Plastic, Paper, Glass, Metal", "volume": "", "lat": 53.5065249, "lon": -2.3374401}, {"naam": "V.C. Cooke", "regio": "Suffolk", "land": "United Kingdom", "klanttype": "Residential, Commercial", "materialen": "Paper, Metal", "volume": "", "lat": 52.2410014, "lon": 1.0465716}, {"naam": "Vale Skip Hire", "regio": "Nottingham", "land": "United Kingdom", "klanttype": "Residential, Commercial", "materialen": "Plastic, Paper, Glass, Metal, Organic", "volume": "", "lat": 52.9534193, "lon": -1.1496461}, {"naam": "Veolia Hampshire Limited", "regio": "Hampshire", "land": "United Kingdom", "klanttype": "Residential", "materialen": "Plastic, Paper, Metal", "volume": "", "lat": 51.0449814, "lon": -1.2433102}, {"naam": "W Maw Recycling Ltd", "regio": "South Yorkshire", "land": "United Kingdom", "klanttype": "Residential, Commercial, Industrial", "materialen": "Plastic, Paper, Glass, Organic", "volume": "", "lat": 53.4815334, "lon": -1.3810422}, {"naam": "W&S Waste Management Ltd", "regio": "Dorset", "land": "United Kingdom", "klanttype": "Residential, Commercial, Industrial", "materialen": "Plastic, Paper, Glass, Metal", "volume": "", "lat": 50.7968369, "lon": -2.3447323}, {"naam": "Ward Recycling", "regio": "Derbyshire", "land": "United Kingdom", "klanttype": "Residential, Commercial", "materialen": "Plastic, Paper, Glass, Metal, Organic", "volume": "", "lat": 53.1185033, "lon": -1.5566179}, {"naam": "Wareham & Purbeck Skip Hire", "regio": "Dorset", "land": "United Kingdom", "klanttype": "Residential, Commercial, Industrial", "materialen": "Plastic, Paper, Metal, Organic", "volume": "", "lat": 50.7968369, "lon": -2.3447323}, {"naam": "Waste King Limited", "regio": "Milton Keynes", "land": "United Kingdom", "klanttype": "Residential, Commercial", "materialen": "Plastic, Paper, Glass, Metal, Organic", "volume": "", "lat": 52.0406502, "lon": -0.7594092}, {"naam": "Wastewise", "regio": "East Riding of Yorkshire", "land": "United Kingdom", "klanttype": "Residential, Commercial, Industrial", "materialen": "Plastic, Paper, Glass, Metal", "volume": "300,000", "lat": 53.8735965, "lon": -0.5347788}, {"naam": "Wave Environmental Solutions Ltd", "regio": "Caerphilly", "land": "United Kingdom", "klanttype": "Commercial, Industrial", "materialen": "Plastic, Paper", "volume": "", "lat": 51.6723809, "lon": -3.1783938}, {"naam": "Wellington Waste Skips Ltd", "regio": "", "land": "United Kingdom", "klanttype": "Residential, Commercial, Industrial", "materialen": "Plastic, Paper, Metal, Organic", "volume": "", "lat": 54.7023545, "lon": -3.2765753}, {"naam": "Welwyn Skips Ltd.", "regio": "Hertfordshire", "land": "United Kingdom", "klanttype": "Residential, Commercial", "materialen": "Plastic, Paper", "volume": "", "lat": 51.8400523, "lon": -0.0978552}, {"naam": "Westminster Waste Ltd", "regio": "Greater London", "land": "United Kingdom", "klanttype": "Commercial, Industrial", "materialen": "Plastic, Paper, Glass, Metal", "volume": "250,000", "lat": 51.5074456, "lon": -0.1277653}, {"naam": "Westridge Skip Hire Ltd.", "regio": "Isle of Wight", "land": "United Kingdom", "klanttype": "Residential, Commercial", "materialen": "Plastic, Paper, Metal", "volume": "", "lat": 50.6710482, "lon": -1.3327111}, {"naam": "Wheeldon Brothers Waste Ltd", "regio": "Greater Manchester", "land": "United Kingdom", "klanttype": "Residential, Commercial, Industrial", "materialen": "Plastic, Paper, Glass, Metal, Organic", "volume": "", "lat": 53.5065249, "lon": -2.3374401}, {"naam": "White Skip Hire", "regio": "Greater London", "land": "United Kingdom", "klanttype": "Residential, Commercial", "materialen": "Plastic, Paper, Metal, Organic", "volume": "", "lat": 51.5074456, "lon": -0.1277653}, {"naam": "Whites Skip Hire", "regio": "Kingston upon Hull", "land": "United Kingdom", "klanttype": "", "materialen": "Plastic, Paper", "volume": "", "lat": 53.7623863, "lon": -0.3301214}, {"naam": "Whites Waste Paper Ltd.", "regio": "Greater Manchester", "land": "United Kingdom", "klanttype": "Commercial", "materialen": "Paper", "volume": "", "lat": 53.5065249, "lon": -2.3374401}, {"naam": "Wicks Waste Management & Recycling", "regio": "Cumbria", "land": "United Kingdom", "klanttype": "Residential, Commercial", "materialen": "Paper, Metal", "volume": "", "lat": 54.6143136, "lon": -2.9420899}, {"naam": "William Munro Construction (Highland) Ltd", "regio": "Highland", "land": "United Kingdom", "klanttype": "Commercial", "materialen": "Plastic, Paper, Metal", "volume": "", "lat": 57.5066357, "lon": -5.0038367}, {"naam": "Willshee's Waste ＆Recycling Ltd", "regio": "Staffordshire", "land": "United Kingdom", "klanttype": "Residential, Commercial, Industrial", "materialen": "Plastic, Paper, Glass, Metal, Organic", "volume": "", "lat": 52.8246942, "lon": -2.0074547}, {"naam": "Winfibre (U.K.) Company Limited", "regio": "Nottingham", "land": "United Kingdom", "klanttype": "", "materialen": "Paper", "volume": "", "lat": 52.9534193, "lon": -1.1496461}, {"naam": "Wirral Metals Limited", "regio": "Merseyside", "land": "United Kingdom", "klanttype": "Residential, Commercial, Industrial", "materialen": "Paper, Metal", "volume": "", "lat": 53.4953602, "lon": -2.973938}, {"naam": "Wm. M Briers & Son (Tamworth) Ltd.", "regio": "Staffordshire", "land": "United Kingdom", "klanttype": "Residential, Commercial, Industrial", "materialen": "Plastic, Paper, Glass, Metal", "volume": "", "lat": 52.8246942, "lon": -2.0074547}, {"naam": "Woodford Recycling Services Ltd.", "regio": "Cambridgeshire", "land": "United Kingdom", "klanttype": "Residential, Commercial, Industrial", "materialen": "Plastic, Paper, Metal, Organic", "volume": "", "lat": 52.3729017, "lon": -0.044936}, {"naam": "Woodside Recycling", "regio": "Berkshire", "land": "United Kingdom", "klanttype": "Commercial, Industrial", "materialen": "Paper, Metal", "volume": "", "lat": 51.4534889, "lon": -1.031873}, {"naam": "Worldwide Waste Management Ltd", "regio": "Greater Manchester", "land": "United Kingdom", "klanttype": "", "materialen": "Plastic, Paper, Metal", "volume": "", "lat": 53.5065249, "lon": -2.3374401}, {"naam": "WRC Recycling", "regio": "Renfrewshire", "land": "United Kingdom", "klanttype": "Residential, Commercial, Industrial", "materialen": "Paper, Glass, Metal", "volume": "", "lat": 55.833333, "lon": -4.5}, {"naam": "WSR Recycling Ltd.", "regio": "Halton", "land": "United Kingdom", "klanttype": "Commercial, Industrial", "materialen": "Plastic, Paper, Glass, Metal, Organic", "volume": "", "lat": 53.3538526, "lon": -2.7427829}, {"naam": "WT Skip Hire", "regio": "Norfolk", "land": "United Kingdom", "klanttype": "Residential, Commercial, Industrial", "materialen": "Plastic, Paper, Glass, Metal, Organic", "volume": "", "lat": 52.666667, "lon": 1.0},